{
  "meta": {
    "generatedAt": "2026-04-03T20:34:54.629Z",
    "rowCount": 1216,
    "uniqueRawLocations": 287,
    "resolvedLocationCount": 269,
    "unresolvedLocationCount": 0,
    "reviewLocationCount": 53
  },
  "locations": {
    "grapevine_texas_32_9343_-97_0781": {
      "id": "grapevine_texas_32_9343_-97_0781",
      "label": "Grapevine, Texas",
      "latitude": 32.9343,
      "longitude": -97.0781,
      "sourceNames": [
        "Grapevine, Texas"
      ],
      "sourceDates": [
        "2026-03-28"
      ]
    },
    "washington_dc_38_9072_-77_0369": {
      "id": "washington_dc_38_9072_-77_0369",
      "label": "Washington, DC",
      "latitude": 38.9072,
      "longitude": -77.0369,
      "sourceNames": [
        "Washington, D.C."
      ],
      "sourceDates": [
        "2026-03-03",
        "2026-03-04",
        "2026-03-05",
        "2026-03-06",
        "2026-03-07",
        "2026-03-08",
        "2026-03-09",
        "2026-03-10",
        "2026-03-11",
        "2026-03-12",
        "2026-03-13",
        "2026-03-14",
        "2026-03-15",
        "2026-03-16",
        "2026-03-17",
        "2026-03-18",
        "2026-03-19",
        "2026-03-20",
        "2026-03-21",
        "2026-03-22",
        "2026-03-23",
        "2026-03-24",
        "2026-03-25",
        "2026-03-26",
        "2026-03-27",
        "2026-03-28"
      ]
    },
    "kyiv_ukraine_50_4547_30_5238": {
      "id": "kyiv_ukraine_50_4547_30_5238",
      "label": "Kyiv, Ukraine",
      "latitude": 50.4547,
      "longitude": 30.5238,
      "sourceNames": [
        "Kyiv, Ukraine"
      ],
      "sourceDates": [
        "2026-03-05",
        "2026-03-07",
        "2026-03-12",
        "2026-03-18",
        "2026-03-19",
        "2026-03-21",
        "2026-03-23",
        "2026-03-24",
        "2026-03-25",
        "2026-03-26",
        "2026-03-27",
        "2026-03-28"
      ]
    },
    "paris_france_48_8534_2_3488": {
      "id": "paris_france_48_8534_2_3488",
      "label": "Paris, France",
      "latitude": 48.8534,
      "longitude": 2.3488,
      "sourceNames": [
        "Paris"
      ],
      "sourceDates": [
        "2026-03-04",
        "2026-03-05",
        "2026-03-06",
        "2026-03-07",
        "2026-03-08",
        "2026-03-09",
        "2026-03-10",
        "2026-03-11",
        "2026-03-15",
        "2026-03-22",
        "2026-03-23",
        "2026-03-24",
        "2026-03-26",
        "2026-03-27",
        "2026-03-28"
      ]
    },
    "beirut_lebanon_33_8933_35_5016": {
      "id": "beirut_lebanon_33_8933_35_5016",
      "label": "Beirut, Lebanon",
      "latitude": 33.8933,
      "longitude": 35.5016,
      "sourceNames": [
        "Beirut, Lebanon"
      ],
      "sourceDates": [
        "2026-03-03",
        "2026-03-05",
        "2026-03-06",
        "2026-03-07",
        "2026-03-10",
        "2026-03-11",
        "2026-03-12",
        "2026-03-13",
        "2026-03-14",
        "2026-03-16",
        "2026-03-17",
        "2026-03-18",
        "2026-03-20",
        "2026-03-21",
        "2026-03-22",
        "2026-03-24",
        "2026-03-25",
        "2026-03-27",
        "2026-03-28"
      ]
    },
    "st_paul_canada_53_9835_-111_2851": {
      "id": "st_paul_canada_53_9835_-111_2851",
      "label": "St. Paul, Canada",
      "latitude": 53.9835,
      "longitude": -111.2851,
      "sourceNames": [
        "St. Paul, Minn."
      ],
      "sourceDates": [
        "2026-03-11",
        "2026-03-21",
        "2026-03-28"
      ]
    },
    "islamabad_pakistan_33_7215_73_0433": {
      "id": "islamabad_pakistan_33_7215_73_0433",
      "label": "Islamabad, Pakistan",
      "latitude": 33.7215,
      "longitude": 73.0433,
      "sourceNames": [
        "Islamabad, Pakistan"
      ],
      "sourceDates": [
        "2026-03-06",
        "2026-03-07",
        "2026-03-10",
        "2026-03-14",
        "2026-03-18",
        "2026-03-24",
        "2026-03-26",
        "2026-03-28"
      ]
    },
    "milan_italy_45_4643_9_1895": {
      "id": "milan_italy_45_4643_9_1895",
      "label": "Milan, Italy",
      "latitude": 45.4643,
      "longitude": 9.1895,
      "sourceNames": [
        "Milan"
      ],
      "sourceDates": [
        "2026-03-28"
      ]
    },
    "mexico_city_mexico_19_4285_-99_1277": {
      "id": "mexico_city_mexico_19_4285_-99_1277",
      "label": "Mexico City, Mexico",
      "latitude": 19.4285,
      "longitude": -99.1277,
      "sourceNames": [
        "Mexico City"
      ],
      "sourceDates": [
        "2026-03-05",
        "2026-03-06",
        "2026-03-07",
        "2026-03-13",
        "2026-03-14",
        "2026-03-16",
        "2026-03-21",
        "2026-03-28"
      ]
    },
    "miami_florida_25_7743_-80_1937": {
      "id": "miami_florida_25_7743_-80_1937",
      "label": "Miami, Florida",
      "latitude": 25.7743,
      "longitude": -80.1937,
      "sourceNames": [
        "Doral, Miami",
        "Miami",
        "Miami, Fla."
      ],
      "sourceDates": [
        "2026-03-03",
        "2026-03-05",
        "2026-03-07",
        "2026-03-10",
        "2026-03-11",
        "2026-03-12",
        "2026-03-14",
        "2026-03-16",
        "2026-03-17",
        "2026-03-24",
        "2026-03-27",
        "2026-03-28"
      ]
    },
    "las_vegas_united_states_36_175_-115_1372": {
      "id": "las_vegas_united_states_36_175_-115_1372",
      "label": "Las Vegas, United States",
      "latitude": 36.175,
      "longitude": -115.1372,
      "sourceNames": [
        "Las Vegas"
      ],
      "sourceDates": [
        "2026-03-10",
        "2026-03-15",
        "2026-03-28"
      ]
    },
    "mehran_iran_33_1222_46_1646": {
      "id": "mehran_iran_33_1222_46_1646",
      "label": "Mehran, Iran",
      "latitude": 33.1222,
      "longitude": 46.1646,
      "sourceNames": [
        "Iraq-Iran border"
      ],
      "sourceDates": [
        "2026-03-28"
      ]
    },
    "lisle_aux_coudres_quebec_47_4_-70_3833": {
      "id": "lisle_aux_coudres_quebec_47_4_-70_3833",
      "label": "L'Isle-aux-Coudres, Quebec",
      "latitude": 47.4,
      "longitude": -70.3833,
      "sourceNames": [
        "L’Isle-aux-Coudres, Quebec"
      ],
      "sourceDates": [
        "2026-03-28"
      ]
    },
    "houston_texas_29_7633_-95_3633": {
      "id": "houston_texas_29_7633_-95_3633",
      "label": "Houston, Texas",
      "latitude": 29.7633,
      "longitude": -95.3633,
      "sourceNames": [
        "Houston",
        "Houston, Texas"
      ],
      "sourceDates": [
        "2026-03-03",
        "2026-03-04",
        "2026-03-06",
        "2026-03-17",
        "2026-03-20",
        "2026-03-23",
        "2026-03-24",
        "2026-03-25",
        "2026-03-27",
        "2026-03-28"
      ]
    },
    "minneapolis_minnesota_44_98_-93_2638": {
      "id": "minneapolis_minnesota_44_98_-93_2638",
      "label": "Minneapolis, Minnesota",
      "latitude": 44.98,
      "longitude": -93.2638,
      "sourceNames": [
        "Minneapolis"
      ],
      "sourceDates": [
        "2026-03-03",
        "2026-03-24",
        "2026-03-28"
      ]
    },
    "kraskovo_russia_55_6497_37_9878": {
      "id": "kraskovo_russia_55_6497_37_9878",
      "label": "Kraskovo, Russia",
      "latitude": 55.6497,
      "longitude": 37.9878,
      "sourceNames": [
        "Kraskovo, Russia"
      ],
      "sourceDates": [
        "2026-03-28"
      ]
    },
    "west_palm_beach_florida_26_7153_-80_0534": {
      "id": "west_palm_beach_florida_26_7153_-80_0534",
      "label": "West Palm Beach, Florida",
      "latitude": 26.7153,
      "longitude": -80.0534,
      "sourceNames": [
        "West Palm Beach, Fla."
      ],
      "sourceDates": [
        "2026-03-22",
        "2026-03-28"
      ]
    },
    "chicago_illinois_41_85_-87_65": {
      "id": "chicago_illinois_41_85_-87_65",
      "label": "Chicago, Illinois",
      "latitude": 41.85,
      "longitude": -87.65,
      "sourceNames": [
        "Chicago"
      ],
      "sourceDates": [
        "2026-03-03",
        "2026-03-05",
        "2026-03-06",
        "2026-03-07",
        "2026-03-12",
        "2026-03-16",
        "2026-03-18",
        "2026-03-23",
        "2026-03-25",
        "2026-03-27"
      ]
    },
    "atlanta_georgia_33_749_-84_388": {
      "id": "atlanta_georgia_33_749_-84_388",
      "label": "Atlanta, Georgia",
      "latitude": 33.749,
      "longitude": -84.388,
      "sourceNames": [
        "Atlanta"
      ],
      "sourceDates": [
        "2026-03-03",
        "2026-03-05",
        "2026-03-19",
        "2026-03-24",
        "2026-03-25",
        "2026-03-27"
      ]
    },
    "jerusalem_israel_31_769_35_2163": {
      "id": "jerusalem_israel_31_769_35_2163",
      "label": "Jerusalem, Israel",
      "latitude": 31.769,
      "longitude": 35.2163,
      "sourceNames": [
        "Jerusalem"
      ],
      "sourceDates": [
        "2026-03-03",
        "2026-03-04",
        "2026-03-05",
        "2026-03-08",
        "2026-03-09",
        "2026-03-11",
        "2026-03-12",
        "2026-03-14",
        "2026-03-15",
        "2026-03-16",
        "2026-03-17",
        "2026-03-18",
        "2026-03-19",
        "2026-03-20",
        "2026-03-21",
        "2026-03-22",
        "2026-03-23",
        "2026-03-26",
        "2026-03-27"
      ]
    },
    "dallas_texas_32_7831_-96_8067": {
      "id": "dallas_texas_32_7831_-96_8067",
      "label": "Dallas, Texas",
      "latitude": 32.7831,
      "longitude": -96.8067,
      "sourceNames": [
        "Dallas"
      ],
      "sourceDates": [
        "2026-03-03",
        "2026-03-04",
        "2026-03-13",
        "2026-03-27"
      ]
    },
    "warsaw_poland_52_2298_21_0118": {
      "id": "warsaw_poland_52_2298_21_0118",
      "label": "Warsaw, Poland",
      "latitude": 52.2298,
      "longitude": 21.0118,
      "sourceNames": [
        "Warsaw, Poland"
      ],
      "sourceDates": [
        "2026-03-27"
      ]
    },
    "kansas_city_united_states_39_0997_-94_5786": {
      "id": "kansas_city_united_states_39_0997_-94_5786",
      "label": "Kansas City, United States",
      "latitude": 39.0997,
      "longitude": -94.5786,
      "sourceNames": [
        "Kansas City"
      ],
      "sourceDates": [
        "2026-03-27"
      ]
    },
    "rome_italy_41_8919_12_5113": {
      "id": "rome_italy_41_8919_12_5113",
      "label": "Rome, Italy",
      "latitude": 41.8919,
      "longitude": 12.5113,
      "sourceNames": [
        "Rome"
      ],
      "sourceDates": [
        "2026-03-05",
        "2026-03-12",
        "2026-03-13",
        "2026-03-15",
        "2026-03-17",
        "2026-03-18",
        "2026-03-21",
        "2026-03-23",
        "2026-03-24",
        "2026-03-25",
        "2026-03-27"
      ]
    },
    "los_angeles_california_34_0522_-118_2437": {
      "id": "los_angeles_california_34_0522_-118_2437",
      "label": "Los Angeles, California",
      "latitude": 34.0522,
      "longitude": -118.2437,
      "sourceNames": [
        "Los Angeles",
        "Los Angeles County"
      ],
      "sourceDates": [
        "2026-03-04",
        "2026-03-05",
        "2026-03-06",
        "2026-03-07",
        "2026-03-09",
        "2026-03-11",
        "2026-03-12",
        "2026-03-13",
        "2026-03-14",
        "2026-03-16",
        "2026-03-18",
        "2026-03-19",
        "2026-03-24",
        "2026-03-25",
        "2026-03-26",
        "2026-03-27"
      ]
    },
    "madrid_spain_40_4165_-3_7026": {
      "id": "madrid_spain_40_4165_-3_7026",
      "label": "Madrid, Spain",
      "latitude": 40.4165,
      "longitude": -3.7026,
      "sourceNames": [
        "Madrid"
      ],
      "sourceDates": [
        "2026-03-03",
        "2026-03-04",
        "2026-03-20",
        "2026-03-26",
        "2026-03-27"
      ]
    },
    "munich_germany_48_1374_11_5755": {
      "id": "munich_germany_48_1374_11_5755",
      "label": "Munich, Germany",
      "latitude": 48.1374,
      "longitude": 11.5755,
      "sourceNames": [
        "Munich, Germany"
      ],
      "sourceDates": [
        "2026-03-27"
      ]
    },
    "berlin_germany_52_5244_13_4105": {
      "id": "berlin_germany_52_5244_13_4105",
      "label": "Berlin, Germany",
      "latitude": 52.5244,
      "longitude": 13.4105,
      "sourceNames": [
        "Berlin"
      ],
      "sourceDates": [
        "2026-03-03",
        "2026-03-06",
        "2026-03-07",
        "2026-03-10",
        "2026-03-11",
        "2026-03-13",
        "2026-03-16",
        "2026-03-17",
        "2026-03-18",
        "2026-03-19",
        "2026-03-20",
        "2026-03-25",
        "2026-03-26",
        "2026-03-27"
      ]
    },
    "manila_philippines_14_6042_120_9822": {
      "id": "manila_philippines_14_6042_120_9822",
      "label": "Manila, Philippines",
      "latitude": 14.6042,
      "longitude": 120.9822,
      "sourceNames": [
        "Manila"
      ],
      "sourceDates": [
        "2026-03-25",
        "2026-03-27"
      ]
    },
    "granada_spain_37_1882_-3_6067": {
      "id": "granada_spain_37_1882_-3_6067",
      "label": "Granada, Spain",
      "latitude": 37.1882,
      "longitude": -3.6067,
      "sourceNames": [
        "Granada, Spain"
      ],
      "sourceDates": [
        "2026-03-27"
      ]
    },
    "brasilia_brazil_-15_7797_-47_9297": {
      "id": "brasilia_brazil_-15_7797_-47_9297",
      "label": "Brasília, Brazil",
      "latitude": -15.7797,
      "longitude": -47.9297,
      "sourceNames": [
        "Brasília",
        "Brasília, Brazil"
      ],
      "sourceDates": [
        "2026-03-13",
        "2026-03-20",
        "2026-03-27"
      ]
    },
    "rio_de_janeiro_brazil_-22_9064_-43_1822": {
      "id": "rio_de_janeiro_brazil_-22_9064_-43_1822",
      "label": "Rio de Janeiro, Brazil",
      "latitude": -22.9064,
      "longitude": -43.1822,
      "sourceNames": [
        "Rio de Janeiro, Brazil"
      ],
      "sourceDates": [
        "2026-03-27"
      ]
    },
    "bangor_maine_44_8012_-68_7778": {
      "id": "bangor_maine_44_8012_-68_7778",
      "label": "Bangor, Maine",
      "latitude": 44.8012,
      "longitude": -68.7778,
      "sourceNames": [
        "Bangor, Maine"
      ],
      "sourceDates": [
        "2026-03-27"
      ]
    },
    "ellsworth_maine_44_5434_-68_4195": {
      "id": "ellsworth_maine_44_5434_-68_4195",
      "label": "Ellsworth, Maine",
      "latitude": 44.5434,
      "longitude": -68.4195,
      "sourceNames": [
        "Ellsworth, Maine"
      ],
      "sourceDates": [
        "2026-03-27"
      ]
    },
    "skowhegan_maine_44_7651_-69_7192": {
      "id": "skowhegan_maine_44_7651_-69_7192",
      "label": "Skowhegan, Maine",
      "latitude": 44.7651,
      "longitude": -69.7192,
      "sourceNames": [
        "Skowhegan, Maine"
      ],
      "sourceDates": [
        "2026-03-27"
      ]
    },
    "northeastern_wisconsin_44_8_-88_1": {
      "id": "northeastern_wisconsin_44_8_-88_1",
      "label": "Northeastern Wisconsin",
      "latitude": 44.8,
      "longitude": -88.1,
      "sourceNames": [
        "northeastern Wisconsin"
      ],
      "sourceDates": [
        "2026-03-27"
      ]
    },
    "fort_myers_florida_26_6217_-81_8406": {
      "id": "fort_myers_florida_26_6217_-81_8406",
      "label": "Fort Myers, Florida",
      "latitude": 26.6217,
      "longitude": -81.8406,
      "sourceNames": [
        "Fort Myers, Fla."
      ],
      "sourceDates": [
        "2026-03-27"
      ]
    },
    "ochopee_florida_25_9015_-81_3034": {
      "id": "ochopee_florida_25_9015_-81_3034",
      "label": "Ochopee, Florida",
      "latitude": 25.9015,
      "longitude": -81.3034,
      "sourceNames": [
        "Ochopee, Fla."
      ],
      "sourceDates": [
        "2026-03-27"
      ]
    },
    "orlando_florida_28_5383_-81_3792": {
      "id": "orlando_florida_28_5383_-81_3792",
      "label": "Orlando, Florida",
      "latitude": 28.5383,
      "longitude": -81.3792,
      "sourceNames": [
        "Orlando, Fla."
      ],
      "sourceDates": [
        "2026-03-27"
      ]
    },
    "riyadh_saudi_arabia_24_6877_46_7219": {
      "id": "riyadh_saudi_arabia_24_6877_46_7219",
      "label": "Riyadh, Saudi Arabia",
      "latitude": 24.6877,
      "longitude": 46.7219,
      "sourceNames": [
        "Riyadh, Saudi Arabia"
      ],
      "sourceDates": [
        "2026-03-03",
        "2026-03-08",
        "2026-03-14",
        "2026-03-17",
        "2026-03-19",
        "2026-03-27"
      ]
    },
    "seoul_south_korea_37_566_126_9784": {
      "id": "seoul_south_korea_37_566_126_9784",
      "label": "Seoul, South Korea",
      "latitude": 37.566,
      "longitude": 126.9784,
      "sourceNames": [
        "Seoul"
      ],
      "sourceDates": [
        "2026-03-05",
        "2026-03-09",
        "2026-03-10",
        "2026-03-12",
        "2026-03-13",
        "2026-03-20",
        "2026-03-21",
        "2026-03-23",
        "2026-03-24",
        "2026-03-25",
        "2026-03-27"
      ]
    },
    "albany_new_york_42_6526_-73_7562": {
      "id": "albany_new_york_42_6526_-73_7562",
      "label": "Albany, New York",
      "latitude": 42.6526,
      "longitude": -73.7562,
      "sourceNames": [
        "Albany, N.Y."
      ],
      "sourceDates": [
        "2026-03-09",
        "2026-03-27"
      ]
    },
    "kathmandu_nepal_27_7017_85_3206": {
      "id": "kathmandu_nepal_27_7017_85_3206",
      "label": "Kathmandu, Nepal",
      "latitude": 27.7017,
      "longitude": 85.3206,
      "sourceNames": [
        "Kathmandu, Nepal"
      ],
      "sourceDates": [
        "2026-03-04",
        "2026-03-05",
        "2026-03-08",
        "2026-03-10",
        "2026-03-27"
      ]
    },
    "torshavn_faroe_islands_62_0079_-6_791": {
      "id": "torshavn_faroe_islands_62_0079_-6_791",
      "label": "Torshavn, Faroe Islands",
      "latitude": 62.0079,
      "longitude": -6.791,
      "sourceNames": [
        "Torshavn, the Faroe Islands"
      ],
      "sourceDates": [
        "2026-03-27"
      ]
    },
    "khasab_oman_26_1799_56_2477": {
      "id": "khasab_oman_26_1799_56_2477",
      "label": "Khasab, Oman",
      "latitude": 26.1799,
      "longitude": 56.2477,
      "sourceNames": [
        "Khasab, Oman"
      ],
      "sourceDates": [
        "2026-03-27"
      ]
    },
    "new_york_city_40_7128_-74_006": {
      "id": "new_york_city_40_7128_-74_006",
      "label": "New York City",
      "latitude": 40.7128,
      "longitude": -74.006,
      "sourceNames": [
        "New York"
      ],
      "sourceDates": [
        "2026-03-03",
        "2026-03-04",
        "2026-03-05",
        "2026-03-06",
        "2026-03-07",
        "2026-03-09",
        "2026-03-11",
        "2026-03-12",
        "2026-03-13",
        "2026-03-14",
        "2026-03-17",
        "2026-03-19",
        "2026-03-21",
        "2026-03-23",
        "2026-03-24",
        "2026-03-25",
        "2026-03-26",
        "2026-03-27"
      ]
    },
    "london_england_51_5085_-0_1257": {
      "id": "london_england_51_5085_-0_1257",
      "label": "London, England",
      "latitude": 51.5085,
      "longitude": -0.1257,
      "sourceNames": [
        "Heathrow Airport, London",
        "London",
        "London, England",
        "Westminster Magistrates’ Court, London"
      ],
      "sourceDates": [
        "2026-03-03",
        "2026-03-04",
        "2026-03-05",
        "2026-03-06",
        "2026-03-07",
        "2026-03-08",
        "2026-03-09",
        "2026-03-10",
        "2026-03-11",
        "2026-03-12",
        "2026-03-13",
        "2026-03-14",
        "2026-03-15",
        "2026-03-16",
        "2026-03-17",
        "2026-03-18",
        "2026-03-19",
        "2026-03-20",
        "2026-03-21",
        "2026-03-23",
        "2026-03-24",
        "2026-03-25",
        "2026-03-26",
        "2026-03-27"
      ]
    },
    "taipei_taiwan_25_0478_121_5319": {
      "id": "taipei_taiwan_25_0478_121_5319",
      "label": "Taipei, Taiwan",
      "latitude": 25.0478,
      "longitude": 121.5319,
      "sourceNames": [
        "Taipei, Taiwan"
      ],
      "sourceDates": [
        "2026-03-04",
        "2026-03-05",
        "2026-03-09",
        "2026-03-11",
        "2026-03-17",
        "2026-03-19",
        "2026-03-23",
        "2026-03-27"
      ]
    },
    "taichung_taiwan_24_1469_120_6839": {
      "id": "taichung_taiwan_24_1469_120_6839",
      "label": "Taichung, Taiwan",
      "latitude": 24.1469,
      "longitude": 120.6839,
      "sourceNames": [
        "Taichung, Taiwan"
      ],
      "sourceDates": [
        "2026-03-27"
      ]
    },
    "san_francisco_california_37_7749_-122_4194": {
      "id": "san_francisco_california_37_7749_-122_4194",
      "label": "San Francisco, California",
      "latitude": 37.7749,
      "longitude": -122.4194,
      "sourceNames": [
        "San Francisco"
      ],
      "sourceDates": [
        "2026-03-03",
        "2026-03-04",
        "2026-03-05",
        "2026-03-08",
        "2026-03-09",
        "2026-03-10",
        "2026-03-12",
        "2026-03-15",
        "2026-03-16",
        "2026-03-17",
        "2026-03-18",
        "2026-03-19",
        "2026-03-20",
        "2026-03-21",
        "2026-03-24",
        "2026-03-25",
        "2026-03-26"
      ]
    },
    "sacramento_california_38_5816_-121_4944": {
      "id": "sacramento_california_38_5816_-121_4944",
      "label": "Sacramento, California",
      "latitude": 38.5816,
      "longitude": -121.4944,
      "sourceNames": [
        "Sacramento"
      ],
      "sourceDates": [
        "2026-03-13",
        "2026-03-18",
        "2026-03-19",
        "2026-03-24",
        "2026-03-26"
      ]
    },
    "budapest_hungary_47_4984_19_0404": {
      "id": "budapest_hungary_47_4984_19_0404",
      "label": "Budapest, Hungary",
      "latitude": 47.4984,
      "longitude": 19.0404,
      "sourceNames": [
        "Budapest"
      ],
      "sourceDates": [
        "2026-03-10",
        "2026-03-19",
        "2026-03-26"
      ]
    },
    "kuala_lumpur_malaysia_3_1412_101_6865": {
      "id": "kuala_lumpur_malaysia_3_1412_101_6865",
      "label": "Kuala Lumpur, Malaysia",
      "latitude": 3.1412,
      "longitude": 101.6865,
      "sourceNames": [
        "Kuala Lumpur, Malaysia"
      ],
      "sourceDates": [
        "2026-03-26"
      ]
    },
    "ottawa_canada_45_4112_-75_6981": {
      "id": "ottawa_canada_45_4112_-75_6981",
      "label": "Ottawa, Canada",
      "latitude": 45.4112,
      "longitude": -75.6981,
      "sourceNames": [
        "Ottawa"
      ],
      "sourceDates": [
        "2026-03-23",
        "2026-03-26"
      ]
    },
    "sydney_australia_-33_8678_151_2073": {
      "id": "sydney_australia_-33_8678_151_2073",
      "label": "Sydney, Australia",
      "latitude": -33.8678,
      "longitude": 151.2073,
      "sourceNames": [
        "Sydney",
        "Sydney, Australia"
      ],
      "sourceDates": [
        "2026-03-04",
        "2026-03-05",
        "2026-03-09",
        "2026-03-10",
        "2026-03-15",
        "2026-03-20",
        "2026-03-24",
        "2026-03-25",
        "2026-03-26"
      ]
    },
    "dubai_united_arab_emirates_25_0772_55_3093": {
      "id": "dubai_united_arab_emirates_25_0772_55_3093",
      "label": "Dubai, United Arab Emirates",
      "latitude": 25.0772,
      "longitude": 55.3093,
      "sourceNames": [
        "Dubai",
        "Dubai International Airport",
        "Dubai, United Arab Emirates"
      ],
      "sourceDates": [
        "2026-03-03",
        "2026-03-05",
        "2026-03-09",
        "2026-03-19",
        "2026-03-24",
        "2026-03-25",
        "2026-03-26"
      ]
    },
    "brussels_belgium_50_8505_4_3488": {
      "id": "brussels_belgium_50_8505_4_3488",
      "label": "Brussels, Belgium",
      "latitude": 50.8505,
      "longitude": 4.3488,
      "sourceNames": [
        "Brussels"
      ],
      "sourceDates": [
        "2026-03-07",
        "2026-03-08",
        "2026-03-09",
        "2026-03-17",
        "2026-03-18",
        "2026-03-19",
        "2026-03-22",
        "2026-03-24",
        "2026-03-25",
        "2026-03-26"
      ]
    },
    "blacksburg_virginia_37_2296_-80_4139": {
      "id": "blacksburg_virginia_37_2296_-80_4139",
      "label": "Blacksburg, Virginia",
      "latitude": 37.2296,
      "longitude": -80.4139,
      "sourceNames": [
        "Blacksburg, Va."
      ],
      "sourceDates": [
        "2026-03-26"
      ]
    },
    "san_pedro_los_angeles_33_7361_-118_2923": {
      "id": "san_pedro_los_angeles_33_7361_-118_2923",
      "label": "San Pedro, Los Angeles",
      "latitude": 33.7361,
      "longitude": -118.2923,
      "sourceNames": [
        "San Pedro, Los Angeles"
      ],
      "sourceDates": [
        "2026-03-26"
      ]
    },
    "havana_cuba_23_133_-82_383": {
      "id": "havana_cuba_23_133_-82_383",
      "label": "Havana, Cuba",
      "latitude": 23.133,
      "longitude": -82.383,
      "sourceNames": [
        "Havana"
      ],
      "sourceDates": [
        "2026-03-13",
        "2026-03-26"
      ]
    },
    "eastern_ukraine_48_5_37_5": {
      "id": "eastern_ukraine_48_5_37_5",
      "label": "Eastern Ukraine",
      "latitude": 48.5,
      "longitude": 37.5,
      "sourceNames": [
        "eastern Ukraine"
      ],
      "sourceDates": [
        "2026-03-09",
        "2026-03-26"
      ]
    },
    "phuket_thailand_7_8906_98_3981": {
      "id": "phuket_thailand_7_8906_98_3981",
      "label": "Phuket, Thailand",
      "latitude": 7.8906,
      "longitude": 98.3981,
      "sourceNames": [
        "Phuket, Thailand"
      ],
      "sourceDates": [
        "2026-03-26"
      ]
    },
    "new_delhi_india_28_6358_77_2245": {
      "id": "new_delhi_india_28_6358_77_2245",
      "label": "New Delhi, India",
      "latitude": 28.6358,
      "longitude": 77.2245,
      "sourceNames": [
        "New Delhi",
        "New Delhi, India"
      ],
      "sourceDates": [
        "2026-03-04",
        "2026-03-05",
        "2026-03-06",
        "2026-03-12",
        "2026-03-13",
        "2026-03-16",
        "2026-03-19",
        "2026-03-22",
        "2026-03-24",
        "2026-03-25",
        "2026-03-26"
      ]
    },
    "lusaka_zambia_-15_4067_28_2871": {
      "id": "lusaka_zambia_-15_4067_28_2871",
      "label": "Lusaka, Zambia",
      "latitude": -15.4067,
      "longitude": 28.2871,
      "sourceNames": [
        "Lusaka, Zambia"
      ],
      "sourceDates": [
        "2026-03-16",
        "2026-03-26"
      ]
    },
    "phoenix_united_states_33_4484_-112_074": {
      "id": "phoenix_united_states_33_4484_-112_074",
      "label": "Phoenix, United States",
      "latitude": 33.4484,
      "longitude": -112.074,
      "sourceNames": [
        "Phoenix",
        "Phoenix, Arizona"
      ],
      "sourceDates": [
        "2026-03-14",
        "2026-03-17",
        "2026-03-25"
      ]
    },
    "montreal_quebec_canada_45_5017_-73_5673": {
      "id": "montreal_quebec_canada_45_5017_-73_5673",
      "label": "Montreal, Quebec, Canada",
      "latitude": 45.5017,
      "longitude": -73.5673,
      "sourceNames": [
        "Montreal"
      ],
      "sourceDates": [
        "2026-03-17",
        "2026-03-19",
        "2026-03-25"
      ]
    },
    "bangkok_thailand_13_754_100_5014": {
      "id": "bangkok_thailand_13_754_100_5014",
      "label": "Bangkok, Thailand",
      "latitude": 13.754,
      "longitude": 100.5014,
      "sourceNames": [
        "Bangkok",
        "Bangkok, Thailand"
      ],
      "sourceDates": [
        "2026-03-09",
        "2026-03-13",
        "2026-03-25"
      ]
    },
    "dakar_senegal_14_6937_-17_4441": {
      "id": "dakar_senegal_14_6937_-17_4441",
      "label": "Dakar, Senegal",
      "latitude": 14.6937,
      "longitude": -17.4441,
      "sourceNames": [
        "Dakar, Senegal"
      ],
      "sourceDates": [
        "2026-03-03",
        "2026-03-17",
        "2026-03-25"
      ]
    },
    "copenhagen_denmark_55_6759_12_5655": {
      "id": "copenhagen_denmark_55_6759_12_5655",
      "label": "Copenhagen, Denmark",
      "latitude": 55.6759,
      "longitude": 12.5655,
      "sourceNames": [
        "Copenhagen"
      ],
      "sourceDates": [
        "2026-03-03",
        "2026-03-05",
        "2026-03-24",
        "2026-03-25"
      ]
    },
    "oakland_california_37_8044_-122_2708": {
      "id": "oakland_california_37_8044_-122_2708",
      "label": "Oakland, California",
      "latitude": 37.8044,
      "longitude": -122.2708,
      "sourceNames": [
        "Oakland, Calif."
      ],
      "sourceDates": [
        "2026-03-25"
      ]
    },
    "juneau_united_states_58_3019_-134_4197": {
      "id": "juneau_united_states_58_3019_-134_4197",
      "label": "Juneau, United States",
      "latitude": 58.3019,
      "longitude": -134.4197,
      "sourceNames": [
        "Juneau, Alaska"
      ],
      "sourceDates": [
        "2026-03-25"
      ]
    },
    "zaporizhzhia_ukraine_47_8388_35_1396": {
      "id": "zaporizhzhia_ukraine_47_8388_35_1396",
      "label": "Zaporizhzhia, Ukraine",
      "latitude": 47.8388,
      "longitude": 35.1396,
      "sourceNames": [
        "Zaporizhzhia, Ukraine"
      ],
      "sourceDates": [
        "2026-03-25"
      ]
    },
    "san_jose_california_37_3394_-121_895": {
      "id": "san_jose_california_37_3394_-121_895",
      "label": "San Jose, California",
      "latitude": 37.3394,
      "longitude": -121.895,
      "sourceNames": [
        "San Jose, Calif."
      ],
      "sourceDates": [
        "2026-03-13",
        "2026-03-16",
        "2026-03-25"
      ]
    },
    "nashville_united_states_36_1659_-86_7844": {
      "id": "nashville_united_states_36_1659_-86_7844",
      "label": "Nashville, United States",
      "latitude": 36.1659,
      "longitude": -86.7844,
      "sourceNames": [
        "Nashville"
      ],
      "sourceDates": [
        "2026-03-07",
        "2026-03-09",
        "2026-03-19",
        "2026-03-22",
        "2026-03-25"
      ]
    },
    "upper_marlboro_maryland_38_816_-76_7497": {
      "id": "upper_marlboro_maryland_38_816_-76_7497",
      "label": "Upper Marlboro, Maryland",
      "latitude": 38.816,
      "longitude": -76.7497,
      "sourceNames": [
        "Upper Marlboro, Md."
      ],
      "sourceDates": [
        "2026-03-25"
      ]
    },
    "canterbury_england_51_279_1_0799": {
      "id": "canterbury_england_51_279_1_0799",
      "label": "Canterbury, England",
      "latitude": 51.279,
      "longitude": 1.0799,
      "sourceNames": [
        "Canterbury, England"
      ],
      "sourceDates": [
        "2026-03-20",
        "2026-03-25"
      ]
    },
    "jinack_island_gambia_13_1833_-16_7667": {
      "id": "jinack_island_gambia_13_1833_-16_7667",
      "label": "Jinack Island, Gambia",
      "latitude": 13.1833,
      "longitude": -16.7667,
      "sourceNames": [
        "Jinack, Gambia"
      ],
      "sourceDates": [
        "2026-03-25"
      ]
    },
    "newark_united_states_40_7357_-74_1724": {
      "id": "newark_united_states_40_7357_-74_1724",
      "label": "Newark, United States",
      "latitude": 40.7357,
      "longitude": -74.1724,
      "sourceNames": [
        "Newark"
      ],
      "sourceDates": [
        "2026-03-24"
      ]
    },
    "guantanamo_bay_cuba_19_906_-75_128": {
      "id": "guantanamo_bay_cuba_19_906_-75_128",
      "label": "Guantanamo Bay, Cuba",
      "latitude": 19.906,
      "longitude": -75.128,
      "sourceNames": [
        "Guantánamo Bay, Cuba"
      ],
      "sourceDates": [
        "2026-03-24"
      ]
    },
    "laguardia_airport_new_york_40_7769_-73_874": {
      "id": "laguardia_airport_new_york_40_7769_-73_874",
      "label": "LaGuardia Airport, New York",
      "latitude": 40.7769,
      "longitude": -73.874,
      "sourceNames": [
        "LaGuardia Airport, New York"
      ],
      "sourceDates": [
        "2026-03-24"
      ]
    },
    "hawkesbury_canada_45_6001_-74_6159": {
      "id": "hawkesbury_canada_45_6001_-74_6159",
      "label": "Hawkesbury, Canada",
      "latitude": 45.6001,
      "longitude": -74.6159,
      "sourceNames": [
        "Hawkesbury, Ontario"
      ],
      "sourceDates": [
        "2026-03-24"
      ]
    },
    "istanbul_turkiye_41_0138_28_9497": {
      "id": "istanbul_turkiye_41_0138_28_9497",
      "label": "Istanbul, Türkiye",
      "latitude": 41.0138,
      "longitude": 28.9497,
      "sourceNames": [
        "Istanbul"
      ],
      "sourceDates": [
        "2026-03-05",
        "2026-03-09",
        "2026-03-13",
        "2026-03-18",
        "2026-03-20",
        "2026-03-24"
      ]
    },
    "rehovot_israel_31_8948_34_8113": {
      "id": "rehovot_israel_31_8948_34_8113",
      "label": "Rehovot, Israel",
      "latitude": 31.8948,
      "longitude": 34.8113,
      "sourceNames": [
        "Rehovot, Israel"
      ],
      "sourceDates": [
        "2026-03-16",
        "2026-03-24"
      ]
    },
    "rockingham_county_north_carolina_36_3956_-79_7754": {
      "id": "rockingham_county_north_carolina_36_3956_-79_7754",
      "label": "Rockingham County, North Carolina",
      "latitude": 36.3956,
      "longitude": -79.7754,
      "sourceNames": [
        "Rockingham County, N.C."
      ],
      "sourceDates": [
        "2026-03-04",
        "2026-03-05",
        "2026-03-24"
      ]
    },
    "raleigh_north_carolina_35_7721_-78_6386": {
      "id": "raleigh_north_carolina_35_7721_-78_6386",
      "label": "Raleigh, North Carolina",
      "latitude": 35.7721,
      "longitude": -78.6386,
      "sourceNames": [
        "Raleigh, N.C."
      ],
      "sourceDates": [
        "2026-03-13",
        "2026-03-24"
      ]
    },
    "tel_aviv_israel_32_0809_34_7806": {
      "id": "tel_aviv_israel_32_0809_34_7806",
      "label": "Tel Aviv, Israel",
      "latitude": 32.0809,
      "longitude": 34.7806,
      "sourceNames": [
        "Tel Aviv"
      ],
      "sourceDates": [
        "2026-03-03",
        "2026-03-04",
        "2026-03-08",
        "2026-03-12",
        "2026-03-18",
        "2026-03-22",
        "2026-03-23",
        "2026-03-24"
      ]
    },
    "san_martin_argentina_-33_081_-68_4681": {
      "id": "san_martin_argentina_-33_081_-68_4681",
      "label": "San Martín, Argentina",
      "latitude": -33.081,
      "longitude": -68.4681,
      "sourceNames": [
        "San Martín, northern Ecuador"
      ],
      "sourceDates": [
        "2026-03-24"
      ]
    },
    "cynthiana_kentucky_38_3903_-84_2941": {
      "id": "cynthiana_kentucky_38_3903_-84_2941",
      "label": "Cynthiana, Kentucky",
      "latitude": 38.3903,
      "longitude": -84.2941,
      "sourceNames": [
        "Cynthiana, Ky."
      ],
      "sourceDates": [
        "2026-03-24"
      ]
    },
    "colorado_rockies_39_1178_-106_4454": {
      "id": "colorado_rockies_39_1178_-106_4454",
      "label": "Colorado Rockies",
      "latitude": 39.1178,
      "longitude": -106.4454,
      "sourceNames": [
        "Colorado Rockies"
      ],
      "sourceDates": [
        "2026-03-24"
      ]
    },
    "kabul_afghanistan_34_5281_69_1723": {
      "id": "kabul_afghanistan_34_5281_69_1723",
      "label": "Kabul, Afghanistan",
      "latitude": 34.5281,
      "longitude": 69.1723,
      "sourceNames": [
        "Kabul, Afghanistan",
        "Kabul, the Afghan capital"
      ],
      "sourceDates": [
        "2026-03-15",
        "2026-03-17",
        "2026-03-18",
        "2026-03-24"
      ]
    },
    "buenos_aires_argentina_-34_6131_-58_3772": {
      "id": "buenos_aires_argentina_-34_6131_-58_3772",
      "label": "Buenos Aires, Argentina",
      "latitude": -34.6131,
      "longitude": -58.3772,
      "sourceNames": [
        "Buenos Aires"
      ],
      "sourceDates": [
        "2026-03-13",
        "2026-03-19",
        "2026-03-24"
      ]
    },
    "philadelphia_united_states_39_9523_-75_1638": {
      "id": "philadelphia_united_states_39_9523_-75_1638",
      "label": "Philadelphia, United States",
      "latitude": 39.9523,
      "longitude": -75.1638,
      "sourceNames": [
        "Philadelphia"
      ],
      "sourceDates": [
        "2026-03-09",
        "2026-03-10",
        "2026-03-12",
        "2026-03-23",
        "2026-03-24"
      ]
    },
    "karachi_pakistan_24_8608_67_0104": {
      "id": "karachi_pakistan_24_8608_67_0104",
      "label": "Karachi, Pakistan",
      "latitude": 24.8608,
      "longitude": 67.0104,
      "sourceNames": [
        "Karachi, Pakistan"
      ],
      "sourceDates": [
        "2026-03-24"
      ]
    },
    "hong_kong_22_267_114_188": {
      "id": "hong_kong_22_267_114_188",
      "label": "Hong Kong",
      "latitude": 22.267,
      "longitude": 114.188,
      "sourceNames": [
        "Hong Kong"
      ],
      "sourceDates": [
        "2026-03-03",
        "2026-03-07",
        "2026-03-09",
        "2026-03-10",
        "2026-03-11",
        "2026-03-14",
        "2026-03-17",
        "2026-03-20",
        "2026-03-21",
        "2026-03-23",
        "2026-03-24"
      ]
    },
    "woodbine_georgia_30_964_-81_7242": {
      "id": "woodbine_georgia_30_964_-81_7242",
      "label": "Woodbine, Georgia",
      "latitude": 30.964,
      "longitude": -81.7242,
      "sourceNames": [
        "Woodbine, Ga."
      ],
      "sourceDates": [
        "2026-03-24"
      ]
    },
    "memphis_united_states_35_1495_-90_049": {
      "id": "memphis_united_states_35_1495_-90_049",
      "label": "Memphis, United States",
      "latitude": 35.1495,
      "longitude": -90.049,
      "sourceNames": [
        "Memphis"
      ],
      "sourceDates": [
        "2026-03-23",
        "2026-03-24"
      ]
    },
    "santa_monica_california_34_0194_-118_4912": {
      "id": "santa_monica_california_34_0194_-118_4912",
      "label": "Santa Monica, California",
      "latitude": 34.0194,
      "longitude": -118.4912,
      "sourceNames": [
        "Santa Monica, Calif."
      ],
      "sourceDates": [
        "2026-03-10",
        "2026-03-23"
      ]
    },
    "bogota_colombia_4_6097_-74_0817": {
      "id": "bogota_colombia_4_6097_-74_0817",
      "label": "Bogotá, Colombia",
      "latitude": 4.6097,
      "longitude": -74.0817,
      "sourceNames": [
        "Bogotá, Colombia"
      ],
      "sourceDates": [
        "2026-03-04",
        "2026-03-07",
        "2026-03-08",
        "2026-03-23"
      ]
    },
    "alameda_california_37_771_-122_2609": {
      "id": "alameda_california_37_771_-122_2609",
      "label": "Alameda, California",
      "latitude": 37.771,
      "longitude": -122.2609,
      "sourceNames": [
        "Alameda, Calif."
      ],
      "sourceDates": [
        "2026-03-23"
      ]
    },
    "new_orleans_united_states_29_9547_-90_0751": {
      "id": "new_orleans_united_states_29_9547_-90_0751",
      "label": "New Orleans, United States",
      "latitude": 29.9547,
      "longitude": -90.0751,
      "sourceNames": [
        "New Orleans"
      ],
      "sourceDates": [
        "2026-03-08",
        "2026-03-23"
      ]
    },
    "gaza_palestine_31_5016_34_4667": {
      "id": "gaza_palestine_31_5016_34_4667",
      "label": "Gaza, Palestine",
      "latitude": 31.5016,
      "longitude": 34.4667,
      "sourceNames": [
        "Deir al Balah, Gaza"
      ],
      "sourceDates": [
        "2026-03-23"
      ]
    },
    "sheffield_england_53_383_-1_4659": {
      "id": "sheffield_england_53_383_-1_4659",
      "label": "Sheffield, England",
      "latitude": 53.383,
      "longitude": -1.4659,
      "sourceNames": [
        "Sheffield, England"
      ],
      "sourceDates": [
        "2026-03-23"
      ]
    },
    "cambridge_bay_nunavut_canada_69_1171_-105_0534": {
      "id": "cambridge_bay_nunavut_canada_69_1171_-105_0534",
      "label": "Cambridge Bay, Nunavut, Canada",
      "latitude": 69.1171,
      "longitude": -105.0534,
      "sourceNames": [
        "Cambridge Bay, Nunavut, Canada"
      ],
      "sourceDates": [
        "2026-03-23"
      ]
    },
    "minneapolis_st_paul_44_9537_-93_09": {
      "id": "minneapolis_st_paul_44_9537_-93_09",
      "label": "Minneapolis-St. Paul",
      "latitude": 44.9537,
      "longitude": -93.09,
      "sourceNames": [
        "Minneapolis-St. Paul"
      ],
      "sourceDates": [
        "2026-03-23"
      ]
    },
    "central_virginia_37_5407_-78_5": {
      "id": "central_virginia_37_5407_-78_5",
      "label": "Central Virginia",
      "latitude": 37.5407,
      "longitude": -78.5,
      "sourceNames": [
        "Central Virginia"
      ],
      "sourceDates": [
        "2026-03-23"
      ]
    },
    "iowa_41_878_-93_0977": {
      "id": "iowa_41_878_-93_0977",
      "label": "Iowa",
      "latitude": 41.878,
      "longitude": -93.0977,
      "sourceNames": [
        "Iowa"
      ],
      "sourceDates": [
        "2026-03-23"
      ]
    },
    "central_cameroon_5_9_12_7": {
      "id": "central_cameroon_5_9_12_7",
      "label": "Central Cameroon",
      "latitude": 5.9,
      "longitude": 12.7,
      "sourceNames": [
        "Central Cameroon"
      ],
      "sourceDates": [
        "2026-03-23"
      ]
    },
    "yazdan_iran_33_8675_51_8247": {
      "id": "yazdan_iran_33_8675_51_8247",
      "label": "Yazdan, Iran",
      "latitude": 33.8675,
      "longitude": 51.8247,
      "sourceNames": [
        "Afghanistan-Iran border"
      ],
      "sourceDates": [
        "2026-03-23"
      ]
    },
    "herat_afghanistan_34_3529_62_204": {
      "id": "herat_afghanistan_34_3529_62_204",
      "label": "Herat, Afghanistan",
      "latitude": 34.3529,
      "longitude": 62.204,
      "sourceNames": [
        "Herat, Afghanistan"
      ],
      "sourceDates": [
        "2026-03-17",
        "2026-03-18",
        "2026-03-23"
      ]
    },
    "aalborg_denmark_57_048_9_9187": {
      "id": "aalborg_denmark_57_048_9_9187",
      "label": "Aalborg, Denmark",
      "latitude": 57.048,
      "longitude": 9.9187,
      "sourceNames": [
        "Aalborg"
      ],
      "sourceDates": [
        "2026-03-23"
      ]
    },
    "arad_israel_31_2588_35_2128": {
      "id": "arad_israel_31_2588_35_2128",
      "label": "Arad, Israel",
      "latitude": 31.2588,
      "longitude": 35.2128,
      "sourceNames": [
        "Arad, Israel"
      ],
      "sourceDates": [
        "2026-03-22"
      ]
    },
    "dimona_israel_31_0708_35_0327": {
      "id": "dimona_israel_31_0708_35_0327",
      "label": "Dimona, Israel",
      "latitude": 31.0708,
      "longitude": 35.0327,
      "sourceNames": [
        "Dimona, Israel"
      ],
      "sourceDates": [
        "2026-03-22"
      ]
    },
    "midland_texas_31_9974_-102_0779": {
      "id": "midland_texas_31_9974_-102_0779",
      "label": "Midland, Texas",
      "latitude": 31.9974,
      "longitude": -102.0779,
      "sourceNames": [
        "Midland, Texas"
      ],
      "sourceDates": [
        "2026-03-22"
      ]
    },
    "odessa_texas_31_8457_-102_3676": {
      "id": "odessa_texas_31_8457_-102_3676",
      "label": "Odessa, Texas",
      "latitude": 31.8457,
      "longitude": -102.3676,
      "sourceNames": [
        "Odessa, Texas"
      ],
      "sourceDates": [
        "2026-03-22"
      ]
    },
    "wadsworth_united_states_41_0256_-81_7298": {
      "id": "wadsworth_united_states_41_0256_-81_7298",
      "label": "Wadsworth, United States",
      "latitude": 41.0256,
      "longitude": -81.7298,
      "sourceNames": [
        "Wadsworth, Ohio"
      ],
      "sourceDates": [
        "2026-03-22"
      ]
    },
    "whatcom_county_washington_48_8465_-121_719": {
      "id": "whatcom_county_washington_48_8465_-121_719",
      "label": "Whatcom County, Washington",
      "latitude": 48.8465,
      "longitude": -121.719,
      "sourceNames": [
        "Whatcom County, Wash."
      ],
      "sourceDates": [
        "2026-03-22"
      ]
    },
    "verona_italy_45_4299_10_9844": {
      "id": "verona_italy_45_4299_10_9844",
      "label": "Verona, Italy",
      "latitude": 45.4299,
      "longitude": 10.9844,
      "sourceNames": [
        "Verona, Italy"
      ],
      "sourceDates": [
        "2026-03-07",
        "2026-03-22"
      ]
    },
    "diyarbakir_turkey_37_9144_40_2306": {
      "id": "diyarbakir_turkey_37_9144_40_2306",
      "label": "Diyarbakir, Turkey",
      "latitude": 37.9144,
      "longitude": 40.2306,
      "sourceNames": [
        "Diyarbakir, Turkey"
      ],
      "sourceDates": [
        "2026-03-21"
      ]
    },
    "colombo_sri_lanka_6_9355_79_8487": {
      "id": "colombo_sri_lanka_6_9355_79_8487",
      "label": "Colombo, Sri Lanka",
      "latitude": 6.9355,
      "longitude": 79.8487,
      "sourceNames": [
        "Colombo, Sri Lanka"
      ],
      "sourceDates": [
        "2026-03-04",
        "2026-03-12",
        "2026-03-20",
        "2026-03-21"
      ]
    },
    "wenatchee_washington_47_4235_-120_3103": {
      "id": "wenatchee_washington_47_4235_-120_3103",
      "label": "Wenatchee, Washington",
      "latitude": 47.4235,
      "longitude": -120.3103,
      "sourceNames": [
        "Wenatchee, Wash."
      ],
      "sourceDates": [
        "2026-03-21"
      ]
    },
    "fresno_california_36_7477_-119_7724": {
      "id": "fresno_california_36_7477_-119_7724",
      "label": "Fresno, California",
      "latitude": 36.7477,
      "longitude": -119.7724,
      "sourceNames": [
        "Fresno, Calif."
      ],
      "sourceDates": [
        "2026-03-20"
      ]
    },
    "geneva_switzerland_46_2044_6_1432": {
      "id": "geneva_switzerland_46_2044_6_1432",
      "label": "Geneva, Switzerland",
      "latitude": 46.2044,
      "longitude": 6.1432,
      "sourceNames": [
        "Geneva"
      ],
      "sourceDates": [
        "2026-03-04",
        "2026-03-17",
        "2026-03-20"
      ]
    },
    "mexico_philippines_15_0646_120_7198": {
      "id": "mexico_philippines_15_0646_120_7198",
      "label": "Mexico, Philippines",
      "latitude": 15.0646,
      "longitude": 120.7198,
      "sourceNames": [
        "Yucatán Peninsula, Mexico"
      ],
      "sourceDates": [
        "2026-03-20"
      ]
    },
    "oahu_hawaii_21_4389_-158_0001": {
      "id": "oahu_hawaii_21_4389_-158_0001",
      "label": "Oahu, Hawaii",
      "latitude": 21.4389,
      "longitude": -158.0001,
      "sourceNames": [
        "Oahu"
      ],
      "sourceDates": [
        "2026-03-20"
      ]
    },
    "greeley_colorado_40_4233_-104_7091": {
      "id": "greeley_colorado_40_4233_-104_7091",
      "label": "Greeley, Colorado",
      "latitude": 40.4233,
      "longitude": -104.7091,
      "sourceNames": [
        "Greeley, Colo."
      ],
      "sourceDates": [
        "2026-03-20"
      ]
    },
    "sao_paulo_brazil_-23_5475_-46_6361": {
      "id": "sao_paulo_brazil_-23_5475_-46_6361",
      "label": "São Paulo, Brazil",
      "latitude": -23.5475,
      "longitude": -46.6361,
      "sourceNames": [
        "São Paulo, Brazil"
      ],
      "sourceDates": [
        "2026-03-20"
      ]
    },
    "bucharest_romania_44_4323_26_1063": {
      "id": "bucharest_romania_44_4323_26_1063",
      "label": "Bucharest, Romania",
      "latitude": 44.4323,
      "longitude": 26.1063,
      "sourceNames": [
        "Bucharest, Romania"
      ],
      "sourceDates": [
        "2026-03-20"
      ]
    },
    "cluj_napoca_romania_46_7712_23_6236": {
      "id": "cluj_napoca_romania_46_7712_23_6236",
      "label": "Cluj-Napoca, Romania",
      "latitude": 46.7712,
      "longitude": 23.6236,
      "sourceNames": [
        "Cluj, Romania"
      ],
      "sourceDates": [
        "2026-03-20"
      ]
    },
    "tokyo_japan_35_6895_139_6917": {
      "id": "tokyo_japan_35_6895_139_6917",
      "label": "Tokyo, Japan",
      "latitude": 35.6895,
      "longitude": 139.6917,
      "sourceNames": [
        "Tokyo",
        "Tokyo, Japan"
      ],
      "sourceDates": [
        "2026-03-03",
        "2026-03-04",
        "2026-03-06",
        "2026-03-09",
        "2026-03-13",
        "2026-03-18",
        "2026-03-19",
        "2026-03-20"
      ]
    },
    "samut_sakhon_thailand_13_5475_100_2736": {
      "id": "samut_sakhon_thailand_13_5475_100_2736",
      "label": "Samut Sakhon, Thailand",
      "latitude": 13.5475,
      "longitude": 100.2736,
      "sourceNames": [
        "Samut Sakhon, Thailand"
      ],
      "sourceDates": [
        "2026-03-20"
      ]
    },
    "chonburi_thailand_13_3611_100_9847": {
      "id": "chonburi_thailand_13_3611_100_9847",
      "label": "Chonburi, Thailand",
      "latitude": 13.3611,
      "longitude": 100.9847,
      "sourceNames": [
        "Chonburi, Thailand"
      ],
      "sourceDates": [
        "2026-03-20"
      ]
    },
    "rosario_philippines_13_8635_122_2731": {
      "id": "rosario_philippines_13_8635_122_2731",
      "label": "Rosario, Philippines",
      "latitude": 13.8635,
      "longitude": 122.2731,
      "sourceNames": [
        "Rosario, the Philippines"
      ],
      "sourceDates": [
        "2026-03-20"
      ]
    },
    "hanoi_vietnam_21_0245_105_8412": {
      "id": "hanoi_vietnam_21_0245_105_8412",
      "label": "Hanoi, Vietnam",
      "latitude": 21.0245,
      "longitude": 105.8412,
      "sourceNames": [
        "Hanoi, Vietnam"
      ],
      "sourceDates": [
        "2026-03-20"
      ]
    },
    "tbilisi_georgia_41_6941_44_8337": {
      "id": "tbilisi_georgia_41_6941_44_8337",
      "label": "Tbilisi, Georgia",
      "latitude": 41.6941,
      "longitude": 44.8337,
      "sourceNames": [
        "Tbilisi, Georgia"
      ],
      "sourceDates": [
        "2026-03-05",
        "2026-03-13",
        "2026-03-19"
      ]
    },
    "seattle_washington_47_6062_-122_3321": {
      "id": "seattle_washington_47_6062_-122_3321",
      "label": "Seattle, Washington",
      "latitude": 47.6062,
      "longitude": -122.3321,
      "sourceNames": [
        "Seattle"
      ],
      "sourceDates": [
        "2026-03-19"
      ]
    },
    "nairobi_kenya_-1_2833_36_8167": {
      "id": "nairobi_kenya_-1_2833_36_8167",
      "label": "Nairobi, Kenya",
      "latitude": -1.2833,
      "longitude": 36.8167,
      "sourceNames": [
        "Nairobi",
        "Nairobi, Kenya"
      ],
      "sourceDates": [
        "2026-03-04",
        "2026-03-19"
      ]
    },
    "vilnius_lithuania_54_6892_25_2798": {
      "id": "vilnius_lithuania_54_6892_25_2798",
      "label": "Vilnius, Lithuania",
      "latitude": 54.6892,
      "longitude": 25.2798,
      "sourceNames": [
        "Vilnius, Lithuania"
      ],
      "sourceDates": [
        "2026-03-19"
      ]
    },
    "bakersfield_california_35_3733_-119_0187": {
      "id": "bakersfield_california_35_3733_-119_0187",
      "label": "Bakersfield, California",
      "latitude": 35.3733,
      "longitude": -119.0187,
      "sourceNames": [
        "Bakersfield, Calif."
      ],
      "sourceDates": [
        "2026-03-19"
      ]
    },
    "velykyi_doroshiv_ukraine_49_9509_24_0587": {
      "id": "velykyi_doroshiv_ukraine_49_9509_24_0587",
      "label": "Velykyi Doroshiv, Ukraine",
      "latitude": 49.9509,
      "longitude": 24.0587,
      "sourceNames": [
        "Velykyi Doroshiv, Ukraine"
      ],
      "sourceDates": [
        "2026-03-19"
      ]
    },
    "stavenhagen_germany_53_6976_12_5658": {
      "id": "stavenhagen_germany_53_6976_12_5658",
      "label": "Stavenhagen, Germany",
      "latitude": 53.6976,
      "longitude": 12.5658,
      "sourceNames": [
        "Stavenhagen, Germany"
      ],
      "sourceDates": [
        "2026-03-19"
      ]
    },
    "genesee_county_new_york_43_-78_19": {
      "id": "genesee_county_new_york_43_-78_19",
      "label": "Genesee County, New York",
      "latitude": 43,
      "longitude": -78.19,
      "sourceNames": [
        "Genesee County, N.Y."
      ],
      "sourceDates": [
        "2026-03-17"
      ]
    },
    "khirbet_humsa_al_fawqa_west_bank_32_2648_35_4369": {
      "id": "khirbet_humsa_al_fawqa_west_bank_32_2648_35_4369",
      "label": "Khirbet Humsa al-Fawqa, West Bank",
      "latitude": 32.2648,
      "longitude": 35.4369,
      "sourceNames": [
        "Khirbet Humsa, the West Bank"
      ],
      "sourceDates": [
        "2026-03-18"
      ]
    },
    "montserrat_16_7425_-62_1874": {
      "id": "montserrat_16_7425_-62_1874",
      "label": "Montserrat",
      "latitude": 16.7425,
      "longitude": -62.1874,
      "sourceNames": [
        "the island of Montserrat"
      ],
      "sourceDates": [
        "2026-03-18"
      ]
    },
    "austin_texas_30_2672_-97_7431": {
      "id": "austin_texas_30_2672_-97_7431",
      "label": "Austin, Texas",
      "latitude": 30.2672,
      "longitude": -97.7431,
      "sourceNames": [
        "Austin, Texas"
      ],
      "sourceDates": [
        "2026-03-04",
        "2026-03-05",
        "2026-03-18"
      ]
    },
    "lyubertsy_russia_55_6772_37_8932": {
      "id": "lyubertsy_russia_55_6772_37_8932",
      "label": "Lyubertsy, Russia",
      "latitude": 55.6772,
      "longitude": 37.8932,
      "sourceNames": [
        "Lyubertsy, Russia"
      ],
      "sourceDates": [
        "2026-03-18"
      ]
    },
    "pasadena_texas_29_6911_-95_2091": {
      "id": "pasadena_texas_29_6911_-95_2091",
      "label": "Pasadena, Texas",
      "latitude": 29.6911,
      "longitude": -95.2091,
      "sourceNames": [
        "Pasadena"
      ],
      "sourceDates": [
        "2026-03-18"
      ]
    },
    "middleburgh_new_york_42_5987_-74_3329": {
      "id": "middleburgh_new_york_42_5987_-74_3329",
      "label": "Middleburgh, New York",
      "latitude": 42.5987,
      "longitude": -74.3329,
      "sourceNames": [
        "Middleburgh, N.Y."
      ],
      "sourceDates": [
        "2026-03-18"
      ]
    },
    "faroe_islands_62_-6_8": {
      "id": "faroe_islands_62_-6_8",
      "label": "Faroe Islands",
      "latitude": 62,
      "longitude": -6.8,
      "sourceNames": [
        "the Faroe Islands"
      ],
      "sourceDates": [
        "2026-03-18"
      ]
    },
    "florida_27_6648_-81_5158": {
      "id": "florida_27_6648_-81_5158",
      "label": "Florida",
      "latitude": 27.6648,
      "longitude": -81.5158,
      "sourceNames": [
        "Florida"
      ],
      "sourceDates": [
        "2026-03-04",
        "2026-03-10",
        "2026-03-13",
        "2026-03-16",
        "2026-03-18"
      ]
    },
    "colombia_colombia_3_3761_-74_8015": {
      "id": "colombia_colombia_3_3761_-74_8015",
      "label": "Colombia, Colombia",
      "latitude": 3.3761,
      "longitude": -74.8015,
      "sourceNames": [
        "Putumayo, Colombia"
      ],
      "sourceDates": [
        "2026-03-17"
      ]
    },
    "hialeah_florida_25_8576_-80_2781": {
      "id": "hialeah_florida_25_8576_-80_2781",
      "label": "Hialeah, Florida",
      "latitude": 25.8576,
      "longitude": -80.2781,
      "sourceNames": [
        "Hialeah, Fla."
      ],
      "sourceDates": [
        "2026-03-17"
      ]
    },
    "maiduguri_nigeria_11_8469_13_1571": {
      "id": "maiduguri_nigeria_11_8469_13_1571",
      "label": "Maiduguri, Nigeria",
      "latitude": 11.8469,
      "longitude": 13.1571,
      "sourceNames": [
        "Maiduguri, Nigeria"
      ],
      "sourceDates": [
        "2026-03-17"
      ]
    },
    "mobile_alabama_30_6944_-88_043": {
      "id": "mobile_alabama_30_6944_-88_043",
      "label": "Mobile, Alabama",
      "latitude": 30.6944,
      "longitude": -88.043,
      "sourceNames": [
        "Mobile, Ala."
      ],
      "sourceDates": [
        "2026-03-17"
      ]
    },
    "culiacan_mexico_24_7903_-107_3878": {
      "id": "culiacan_mexico_24_7903_-107_3878",
      "label": "Culiacán, Mexico",
      "latitude": 24.7903,
      "longitude": -107.3878,
      "sourceNames": [
        "Culiacán, Mexico"
      ],
      "sourceDates": [
        "2026-03-11",
        "2026-03-17"
      ]
    },
    "fairford_england_51_7082_-1_7813": {
      "id": "fairford_england_51_7082_-1_7813",
      "label": "Fairford, England",
      "latitude": 51.7082,
      "longitude": -1.7813,
      "sourceNames": [
        "Fairford, England"
      ],
      "sourceDates": [
        "2026-03-17"
      ]
    },
    "mazatlan_mexico_23_2329_-106_4062": {
      "id": "mazatlan_mexico_23_2329_-106_4062",
      "label": "Mazatlán, Mexico",
      "latitude": 23.2329,
      "longitude": -106.4062,
      "sourceNames": [
        "Mazatlán, Mexico"
      ],
      "sourceDates": [
        "2026-03-16"
      ]
    },
    "moscow_russia_55_7522_37_6156": {
      "id": "moscow_russia_55_7522_37_6156",
      "label": "Moscow, Russia",
      "latitude": 55.7522,
      "longitude": 37.6156,
      "sourceNames": [
        "Moscow"
      ],
      "sourceDates": [
        "2026-03-16"
      ]
    },
    "west_hollywood_california_34_09_-118_3617": {
      "id": "west_hollywood_california_34_09_-118_3617",
      "label": "West Hollywood, California",
      "latitude": 34.09,
      "longitude": -118.3617,
      "sourceNames": [
        "West Hollywood, Calif."
      ],
      "sourceDates": [
        "2026-03-16"
      ]
    },
    "senegal_14_-14": {
      "id": "senegal_14_-14",
      "label": "Senegal",
      "latitude": 14,
      "longitude": -14,
      "sourceNames": [
        "Senegal"
      ],
      "sourceDates": [
        "2026-03-16"
      ]
    },
    "birmingham_alabama_33_5207_-86_8025": {
      "id": "birmingham_alabama_33_5207_-86_8025",
      "label": "Birmingham, Alabama",
      "latitude": 33.5207,
      "longitude": -86.8025,
      "sourceNames": [
        "Birmingham, Ala."
      ],
      "sourceDates": [
        "2026-03-10",
        "2026-03-16"
      ]
    },
    "vancouver_canada_49_2497_-123_1193": {
      "id": "vancouver_canada_49_2497_-123_1193",
      "label": "Vancouver, Canada",
      "latitude": 49.2497,
      "longitude": -123.1193,
      "sourceNames": [
        "Vancouver, British Columbia"
      ],
      "sourceDates": [
        "2026-03-16"
      ]
    },
    "dhaka_bangladesh_23_7104_90_4074": {
      "id": "dhaka_bangladesh_23_7104_90_4074",
      "label": "Dhaka, Bangladesh",
      "latitude": 23.7104,
      "longitude": 90.4074,
      "sourceNames": [
        "Dhaka, Bangladesh"
      ],
      "sourceDates": [
        "2026-03-16"
      ]
    },
    "tammun_west_bank_32_2833_35_3833": {
      "id": "tammun_west_bank_32_2833_35_3833",
      "label": "Tammun, West Bank",
      "latitude": 32.2833,
      "longitude": 35.3833,
      "sourceNames": [
        "Tammun, the West Bank"
      ],
      "sourceDates": [
        "2026-03-15"
      ]
    },
    "torkham_34_1217_71_1031": {
      "id": "torkham_34_1217_71_1031",
      "label": "Torkham",
      "latitude": 34.1217,
      "longitude": 71.1031,
      "sourceNames": [
        "Torkham, the border of Pakistan and Afghanistan"
      ],
      "sourceDates": [
        "2026-03-15"
      ]
    },
    "oslo_norway_59_9127_10_7461": {
      "id": "oslo_norway_59_9127_10_7461",
      "label": "Oslo, Norway",
      "latitude": 59.9127,
      "longitude": 10.7461,
      "sourceNames": [
        "Oslo"
      ],
      "sourceDates": [
        "2026-03-08",
        "2026-03-15"
      ]
    },
    "beverly_hills_california_34_0736_-118_4004": {
      "id": "beverly_hills_california_34_0736_-118_4004",
      "label": "Beverly Hills, California",
      "latitude": 34.0736,
      "longitude": -118.4004,
      "sourceNames": [
        "Beverly Hills, Calif."
      ],
      "sourceDates": [
        "2026-03-15"
      ]
    },
    "mountain_view_california_37_386_-122_0838": {
      "id": "mountain_view_california_37_386_-122_0838",
      "label": "Mountain View, California",
      "latitude": 37.386,
      "longitude": -122.0838,
      "sourceNames": [
        "Mountain View, Calif."
      ],
      "sourceDates": [
        "2026-03-15"
      ]
    },
    "mount_vernon_new_york_40_9126_-73_8371": {
      "id": "mount_vernon_new_york_40_9126_-73_8371",
      "label": "Mount Vernon, New York",
      "latitude": 40.9126,
      "longitude": -73.8371,
      "sourceNames": [
        "Mount Vernon, Ore."
      ],
      "sourceDates": [
        "2026-03-15"
      ]
    },
    "nederland_colorado_39_9614_-105_5108": {
      "id": "nederland_colorado_39_9614_-105_5108",
      "label": "Nederland, Colorado",
      "latitude": 39.9614,
      "longitude": -105.5108,
      "sourceNames": [
        "Nederland, Colo."
      ],
      "sourceDates": [
        "2026-03-15"
      ]
    },
    "buffalo_new_york_42_8865_-78_8784": {
      "id": "buffalo_new_york_42_8865_-78_8784",
      "label": "Buffalo, New York",
      "latitude": 42.8865,
      "longitude": -78.8784,
      "sourceNames": [
        "Buffalo"
      ],
      "sourceDates": [
        "2026-03-15"
      ]
    },
    "marseille_france_43_297_5_3811": {
      "id": "marseille_france_43_297_5_3811",
      "label": "Marseille, France",
      "latitude": 43.297,
      "longitude": 5.3811,
      "sourceNames": [
        "Marseille, France"
      ],
      "sourceDates": [
        "2026-03-06",
        "2026-03-15"
      ]
    },
    "johannesburg_south_africa_-26_2023_28_0436": {
      "id": "johannesburg_south_africa_-26_2023_28_0436",
      "label": "Johannesburg, South Africa",
      "latitude": -26.2023,
      "longitude": 28.0436,
      "sourceNames": [
        "Johannesburg"
      ],
      "sourceDates": [
        "2026-03-15"
      ]
    },
    "grindavik_iceland_63_8424_-22_4338": {
      "id": "grindavik_iceland_63_8424_-22_4338",
      "label": "Grindavik, Iceland",
      "latitude": 63.8424,
      "longitude": -22.4338,
      "sourceNames": [
        "Grindavik, Iceland"
      ],
      "sourceDates": [
        "2026-03-15"
      ]
    },
    "husavik_iceland_66_0449_-17_3389": {
      "id": "husavik_iceland_66_0449_-17_3389",
      "label": "Husavik, Iceland",
      "latitude": 66.0449,
      "longitude": -17.3389,
      "sourceNames": [
        "Husavik, Iceland"
      ],
      "sourceDates": [
        "2026-03-15"
      ]
    },
    "florence_italy_43_7792_11_2463": {
      "id": "florence_italy_43_7792_11_2463",
      "label": "Florence, Italy",
      "latitude": 43.7792,
      "longitude": 11.2463,
      "sourceNames": [
        "Florence, Italy"
      ],
      "sourceDates": [
        "2026-03-14"
      ]
    },
    "mombasa_kenya_-4_0547_39_6636": {
      "id": "mombasa_kenya_-4_0547_39_6636",
      "label": "Mombasa, Kenya",
      "latitude": -4.0547,
      "longitude": 39.6636,
      "sourceNames": [
        "Mombasa, Kenya"
      ],
      "sourceDates": [
        "2026-03-14"
      ]
    },
    "barcelona_spain_41_3888_2_159": {
      "id": "barcelona_spain_41_3888_2_159",
      "label": "Barcelona, Spain",
      "latitude": 41.3888,
      "longitude": 2.159,
      "sourceNames": [
        "Barcelona, Spain"
      ],
      "sourceDates": [
        "2026-03-08",
        "2026-03-14"
      ]
    },
    "west_bloomfield_michigan_42_5684_-83_3833": {
      "id": "west_bloomfield_michigan_42_5684_-83_3833",
      "label": "West Bloomfield, Michigan",
      "latitude": 42.5684,
      "longitude": -83.3833,
      "sourceNames": [
        "West Bloomfield, Mich."
      ],
      "sourceDates": [
        "2026-03-13"
      ]
    },
    "rancho_palos_verdes_california_33_7445_-118_387": {
      "id": "rancho_palos_verdes_california_33_7445_-118_387",
      "label": "Rancho Palos Verdes, California",
      "latitude": 33.7445,
      "longitude": -118.387,
      "sourceNames": [
        "Rancho Palos Verdes, Calif."
      ],
      "sourceDates": [
        "2026-03-13"
      ]
    },
    "adana_turkiye_36_9862_35_3253": {
      "id": "adana_turkiye_36_9862_35_3253",
      "label": "Adana, Türkiye",
      "latitude": 36.9862,
      "longitude": 35.3253,
      "sourceNames": [
        "Adana, Turkey"
      ],
      "sourceDates": [
        "2026-03-13"
      ]
    },
    "kiev_ukraine_50_4501_30_5234": {
      "id": "kiev_ukraine_50_4501_30_5234",
      "label": "Kiev, Ukraine",
      "latitude": 50.4501,
      "longitude": 30.5234,
      "sourceNames": [
        "Ukraine (secret site)"
      ],
      "sourceDates": [
        "2026-03-13"
      ]
    },
    "akrotiri_cyprus_34_6258_32_9524": {
      "id": "akrotiri_cyprus_34_6258_32_9524",
      "label": "Akrotiri, Cyprus",
      "latitude": 34.6258,
      "longitude": 32.9524,
      "sourceNames": [
        "Akrotiri, Cyprus"
      ],
      "sourceDates": [
        "2026-03-13"
      ]
    },
    "belfast_united_kingdom_54_5968_-5_9254": {
      "id": "belfast_united_kingdom_54_5968_-5_9254",
      "label": "Belfast, United Kingdom",
      "latitude": 54.5968,
      "longitude": -5.9254,
      "sourceNames": [
        "Belfast"
      ],
      "sourceDates": [
        "2026-03-13"
      ]
    },
    "dilley_texas_28_6675_-99_1706": {
      "id": "dilley_texas_28_6675_-99_1706",
      "label": "Dilley, Texas",
      "latitude": 28.6675,
      "longitude": -99.1706,
      "sourceNames": [
        "Dilley, Texas"
      ],
      "sourceDates": [
        "2026-03-09",
        "2026-03-13"
      ]
    },
    "lower_mainland_british_columbia_49_2463_-122_9805": {
      "id": "lower_mainland_british_columbia_49_2463_-122_9805",
      "label": "Lower Mainland, British Columbia",
      "latitude": 49.2463,
      "longitude": -122.9805,
      "sourceNames": [
        "British Columbia (Lower Mainland)"
      ],
      "sourceDates": [
        "2026-03-13"
      ]
    },
    "pacific_palisades_california_34_0827_-118_5357": {
      "id": "pacific_palisades_california_34_0827_-118_5357",
      "label": "Pacific Palisades, California",
      "latitude": 34.0827,
      "longitude": -118.5357,
      "sourceNames": [
        "Pacific Palisades, Calif."
      ],
      "sourceDates": [
        "2026-03-13"
      ]
    },
    "boston_united_states_42_3584_-71_0598": {
      "id": "boston_united_states_42_3584_-71_0598",
      "label": "Boston, United States",
      "latitude": 42.3584,
      "longitude": -71.0598,
      "sourceNames": [
        "Boston"
      ],
      "sourceDates": [
        "2026-03-13"
      ]
    },
    "ho_chi_minh_city_vietnam_10_823_106_6296": {
      "id": "ho_chi_minh_city_vietnam_10_823_106_6296",
      "label": "Ho Chi Minh City, Vietnam",
      "latitude": 10.823,
      "longitude": 106.6296,
      "sourceNames": [
        "Ho Chi Minh City",
        "Ho Chi Minh City, Vietnam"
      ],
      "sourceDates": [
        "2026-03-09",
        "2026-03-13"
      ]
    },
    "yellowknife_canada_62_4541_-114_3725": {
      "id": "yellowknife_canada_62_4541_-114_3725",
      "label": "Yellowknife, Canada",
      "latitude": 62.4541,
      "longitude": -114.3725,
      "sourceNames": [
        "Yellowknife, Northwest Territories"
      ],
      "sourceDates": [
        "2026-03-13"
      ]
    },
    "dearborn_heights_michigan_42_337_-83_2733": {
      "id": "dearborn_heights_michigan_42_337_-83_2733",
      "label": "Dearborn Heights, Michigan",
      "latitude": 42.337,
      "longitude": -83.2733,
      "sourceNames": [
        "Dearborn Heights, Mich."
      ],
      "sourceDates": [
        "2026-03-13"
      ]
    },
    "goma_dr_congo_-1_6741_29_2284": {
      "id": "goma_dr_congo_-1_6741_29_2284",
      "label": "Goma, DR Congo",
      "latitude": -1.6741,
      "longitude": 29.2284,
      "sourceNames": [
        "Goma, Democratic Republic of Congo"
      ],
      "sourceDates": [
        "2026-03-12"
      ]
    },
    "santiago_chile_-33_4569_-70_6483": {
      "id": "santiago_chile_-33_4569_-70_6483",
      "label": "Santiago, Chile",
      "latitude": -33.4569,
      "longitude": -70.6483,
      "sourceNames": [
        "Santiago, Chile"
      ],
      "sourceDates": [
        "2026-03-12"
      ]
    },
    "southaven_mississippi_34_989_-90_0126": {
      "id": "southaven_mississippi_34_989_-90_0126",
      "label": "Southaven, Mississippi",
      "latitude": 34.989,
      "longitude": -90.0126,
      "sourceNames": [
        "Southaven, Miss."
      ],
      "sourceDates": [
        "2026-03-12"
      ]
    },
    "death_valley_california_36_5054_-117_0794": {
      "id": "death_valley_california_36_5054_-117_0794",
      "label": "Death Valley, California",
      "latitude": 36.5054,
      "longitude": -117.0794,
      "sourceNames": [
        "Death Valley, Calif."
      ],
      "sourceDates": [
        "2026-03-12"
      ]
    },
    "galle_sri_lanka_6_0461_80_2103": {
      "id": "galle_sri_lanka_6_0461_80_2103",
      "label": "Galle, Sri Lanka",
      "latitude": 6.0461,
      "longitude": 80.2103,
      "sourceNames": [
        "Galle, Sri Lanka"
      ],
      "sourceDates": [
        "2026-03-05",
        "2026-03-12"
      ]
    },
    "palo_alto_california_37_4419_-122_143": {
      "id": "palo_alto_california_37_4419_-122_143",
      "label": "Palo Alto, California",
      "latitude": 37.4419,
      "longitude": -122.143,
      "sourceNames": [
        "Palo Alto, Calif."
      ],
      "sourceDates": [
        "2026-03-12"
      ]
    },
    "hebron_kentucky_39_0659_-84_7011": {
      "id": "hebron_kentucky_39_0659_-84_7011",
      "label": "Hebron, Kentucky",
      "latitude": 39.0659,
      "longitude": -84.7011,
      "sourceNames": [
        "Hebron, Ky."
      ],
      "sourceDates": [
        "2026-03-12"
      ]
    },
    "new_york_city_new_york_40_7143_-74_006": {
      "id": "new_york_city_new_york_40_7143_-74_006",
      "label": "New York City, New York",
      "latitude": 40.7143,
      "longitude": -74.006,
      "sourceNames": [
        "New York City"
      ],
      "sourceDates": [
        "2026-03-09",
        "2026-03-11"
      ]
    },
    "toronto_canada_43_7001_-79_4163": {
      "id": "toronto_canada_43_7001_-79_4163",
      "label": "Toronto, Canada",
      "latitude": 43.7001,
      "longitude": -79.4163,
      "sourceNames": [
        "Toronto"
      ],
      "sourceDates": [
        "2026-03-04",
        "2026-03-10",
        "2026-03-11"
      ]
    },
    "doral_florida_25_8195_-80_3553": {
      "id": "doral_florida_25_8195_-80_3553",
      "label": "Doral, Florida",
      "latitude": 25.8195,
      "longitude": -80.3553,
      "sourceNames": [
        "Doral, Fla."
      ],
      "sourceDates": [
        "2026-03-09",
        "2026-03-11"
      ]
    },
    "caracas_venezuela_10_488_-66_8792": {
      "id": "caracas_venezuela_10_488_-66_8792",
      "label": "Caracas, Venezuela",
      "latitude": 10.488,
      "longitude": -66.8792,
      "sourceNames": [
        "Caracas, Venezuela"
      ],
      "sourceDates": [
        "2026-03-06",
        "2026-03-11"
      ]
    },
    "kankakee_county_illinois_41_1377_-87_8615": {
      "id": "kankakee_county_illinois_41_1377_-87_8615",
      "label": "Kankakee County, Illinois",
      "latitude": 41.1377,
      "longitude": -87.8615,
      "sourceNames": [
        "Kankakee County, Ill."
      ],
      "sourceDates": [
        "2026-03-11"
      ]
    },
    "western_indiana_39_7684_-87_3": {
      "id": "western_indiana_39_7684_-87_3",
      "label": "Western Indiana",
      "latitude": 39.7684,
      "longitude": -87.3,
      "sourceNames": [
        "western Indiana"
      ],
      "sourceDates": [
        "2026-03-11"
      ]
    },
    "charleston_south_carolina_32_7766_-79_9309": {
      "id": "charleston_south_carolina_32_7766_-79_9309",
      "label": "Charleston, South Carolina",
      "latitude": 32.7766,
      "longitude": -79.9309,
      "sourceNames": [
        "Charleston, S.C."
      ],
      "sourceDates": [
        "2026-03-11"
      ]
    },
    "sendai_miyagi_japan_38_2682_140_8694": {
      "id": "sendai_miyagi_japan_38_2682_140_8694",
      "label": "Sendai, Miyagi, Japan",
      "latitude": 38.2682,
      "longitude": 140.8694,
      "sourceNames": [
        "Sakunami, Japan"
      ],
      "sourceDates": [
        "2026-03-11"
      ]
    },
    "milton_keynes_england_52_0417_-0_7558": {
      "id": "milton_keynes_england_52_0417_-0_7558",
      "label": "Milton Keynes, England",
      "latitude": 52.0417,
      "longitude": -0.7558,
      "sourceNames": [
        "Milton Keynes, England"
      ],
      "sourceDates": [
        "2026-03-11"
      ]
    },
    "chatham_new_york_42_3642_-73_5948": {
      "id": "chatham_new_york_42_3642_-73_5948",
      "label": "Chatham, New York",
      "latitude": 42.3642,
      "longitude": -73.5948,
      "sourceNames": [
        "Chatham, N.Y."
      ],
      "sourceDates": [
        "2026-03-11"
      ]
    },
    "los_lunas_new_mexico_34_8062_-106_7334": {
      "id": "los_lunas_new_mexico_34_8062_-106_7334",
      "label": "Los Lunas, New Mexico",
      "latitude": 34.8062,
      "longitude": -106.7334,
      "sourceNames": [
        "Los Lunas, N.M."
      ],
      "sourceDates": [
        "2026-03-11"
      ]
    },
    "heber_springs_arkansas_35_4915_-92_0313": {
      "id": "heber_springs_arkansas_35_4915_-92_0313",
      "label": "Heber Springs, Arkansas",
      "latitude": 35.4915,
      "longitude": -92.0313,
      "sourceNames": [
        "Heber Springs, Ark."
      ],
      "sourceDates": [
        "2026-03-11"
      ]
    },
    "dublin_ireland_53_3331_-6_2489": {
      "id": "dublin_ireland_53_3331_-6_2489",
      "label": "Dublin, Ireland",
      "latitude": 53.3331,
      "longitude": -6.2489,
      "sourceNames": [
        "Dublin"
      ],
      "sourceDates": [
        "2026-03-11"
      ]
    },
    "ashland_kentucky_38_4784_-82_6379": {
      "id": "ashland_kentucky_38_4784_-82_6379",
      "label": "Ashland, Kentucky",
      "latitude": 38.4784,
      "longitude": -82.6379,
      "sourceNames": [
        "Ashland, Ky."
      ],
      "sourceDates": [
        "2026-03-11"
      ]
    },
    "rawalpindi_pakistan_33_5973_73_0479": {
      "id": "rawalpindi_pakistan_33_5973_73_0479",
      "label": "Rawalpindi, Pakistan",
      "latitude": 33.5973,
      "longitude": 73.0479,
      "sourceNames": [
        "Rawalpindi, Pakistan"
      ],
      "sourceDates": [
        "2026-03-10"
      ]
    },
    "anchorage_united_states_61_2181_-149_9003": {
      "id": "anchorage_united_states_61_2181_-149_9003",
      "label": "Anchorage, United States",
      "latitude": 61.2181,
      "longitude": -149.9003,
      "sourceNames": [
        "Anchorage"
      ],
      "sourceDates": [
        "2026-03-10"
      ]
    },
    "fort_chipewyan_alberta_58_767_-111_1176": {
      "id": "fort_chipewyan_alberta_58_767_-111_1176",
      "label": "Fort Chipewyan, Alberta",
      "latitude": 58.767,
      "longitude": -111.1176,
      "sourceNames": [
        "Fort Chipewyan, Alberta"
      ],
      "sourceDates": [
        "2026-03-10"
      ]
    },
    "fort_mckay_alberta_57_1846_-111_6405": {
      "id": "fort_mckay_alberta_57_1846_-111_6405",
      "label": "Fort McKay, Alberta",
      "latitude": 57.1846,
      "longitude": -111.6405,
      "sourceNames": [
        "Fort McKay, Alberta"
      ],
      "sourceDates": [
        "2026-03-10"
      ]
    },
    "fort_mcmurray_canada_56_7268_-111_381": {
      "id": "fort_mcmurray_canada_56_7268_-111_381",
      "label": "Fort McMurray, Canada",
      "latitude": 56.7268,
      "longitude": -111.381,
      "sourceNames": [
        "Fort McMurray, Alberta"
      ],
      "sourceDates": [
        "2026-03-10"
      ]
    },
    "gold_coast_australia_-28_0003_153_4309": {
      "id": "gold_coast_australia_-28_0003_153_4309",
      "label": "Gold Coast, Australia",
      "latitude": -28.0003,
      "longitude": 153.4309,
      "sourceNames": [
        "Gold Coast, Australia"
      ],
      "sourceDates": [
        "2026-03-09"
      ]
    },
    "muscat_oman_23_5841_58_4078": {
      "id": "muscat_oman_23_5841_58_4078",
      "label": "Muscat, Oman",
      "latitude": 23.5841,
      "longitude": 58.4078,
      "sourceNames": [
        "Muscat, Oman"
      ],
      "sourceDates": [
        "2026-03-09"
      ]
    },
    "silivri_turkiye_41_0739_28_2464": {
      "id": "silivri_turkiye_41_0739_28_2464",
      "label": "Silivri, Türkiye",
      "latitude": 41.0739,
      "longitude": 28.2464,
      "sourceNames": [
        "Silivri, Turkey"
      ],
      "sourceDates": [
        "2026-03-09"
      ]
    },
    "cairo_egypt_30_0626_31_2497": {
      "id": "cairo_egypt_30_0626_31_2497",
      "label": "Cairo, Egypt",
      "latitude": 30.0626,
      "longitude": 31.2497,
      "sourceNames": [
        "Cairo, Egypt"
      ],
      "sourceDates": [
        "2026-03-09"
      ]
    },
    "sarajevo_bosnia_and_herzegovina_43_8486_18_3564": {
      "id": "sarajevo_bosnia_and_herzegovina_43_8486_18_3564",
      "label": "Sarajevo, Bosnia and Herzegovina",
      "latitude": 43.8486,
      "longitude": 18.3564,
      "sourceNames": [
        "Sarajevo, Bosnia"
      ],
      "sourceDates": [
        "2026-03-09"
      ]
    },
    "selma_alabama_32_4074_-87_0211": {
      "id": "selma_alabama_32_4074_-87_0211",
      "label": "Selma, Alabama",
      "latitude": 32.4074,
      "longitude": -87.0211,
      "sourceNames": [
        "Selma, Ala."
      ],
      "sourceDates": [
        "2026-03-09"
      ]
    },
    "mississippi_32_3547_-89_3985": {
      "id": "mississippi_32_3547_-89_3985",
      "label": "Mississippi",
      "latitude": 32.3547,
      "longitude": -89.3985,
      "sourceNames": [
        "Mississippi"
      ],
      "sourceDates": [
        "2026-03-09"
      ]
    },
    "mississauga_canada_43_5789_-79_6583": {
      "id": "mississauga_canada_43_5789_-79_6583",
      "label": "Mississauga, Canada",
      "latitude": 43.5789,
      "longitude": -79.6583,
      "sourceNames": [
        "Mississauga, Ontario"
      ],
      "sourceDates": [
        "2026-03-09"
      ]
    },
    "lebanon_united_states_36_2081_-86_2911": {
      "id": "lebanon_united_states_36_2081_-86_2911",
      "label": "Lebanon, United States",
      "latitude": 36.2081,
      "longitude": -86.2911,
      "sourceNames": [
        "Nabi Sheet, Lebanon"
      ],
      "sourceDates": [
        "2026-03-07",
        "2026-03-08"
      ]
    },
    "khirbet_abu_falah_west_bank_32_0156_35_3014": {
      "id": "khirbet_abu_falah_west_bank_32_0156_35_3014",
      "label": "Khirbet Abu Falah, West Bank",
      "latitude": 32.0156,
      "longitude": 35.3014,
      "sourceNames": [
        "Khirbet Abu Falah, the West Bank"
      ],
      "sourceDates": [
        "2026-03-08"
      ]
    },
    "monaco_43_7333_7_4": {
      "id": "monaco_43_7333_7_4",
      "label": "Monaco",
      "latitude": 43.7333,
      "longitude": 7.4,
      "sourceNames": [
        "Monaco"
      ],
      "sourceDates": [
        "2026-03-08"
      ]
    },
    "st_petersburg_florida_27_7709_-82_6793": {
      "id": "st_petersburg_florida_27_7709_-82_6793",
      "label": "St. Petersburg, Florida",
      "latitude": 27.7709,
      "longitude": -82.6793,
      "sourceNames": [
        "St. Petersburg, Russia"
      ],
      "sourceDates": [
        "2026-03-08"
      ]
    },
    "union_city_michigan_42_0667_-85_1361": {
      "id": "union_city_michigan_42_0667_-85_1361",
      "label": "Union City, Michigan",
      "latitude": 42.0667,
      "longitude": -85.1361,
      "sourceNames": [
        "Union City, Mich."
      ],
      "sourceDates": [
        "2026-03-07"
      ]
    },
    "tulsa_oklahoma_36_154_-95_9928": {
      "id": "tulsa_oklahoma_36_154_-95_9928",
      "label": "Tulsa, Oklahoma",
      "latitude": 36.154,
      "longitude": -95.9928,
      "sourceNames": [
        "Tulsa, Okla."
      ],
      "sourceDates": [
        "2026-03-07"
      ]
    },
    "delaware_38_9108_-75_5277": {
      "id": "delaware_38_9108_-75_5277",
      "label": "Delaware",
      "latitude": 38.9108,
      "longitude": -75.5277,
      "sourceNames": [
        "Delaware"
      ],
      "sourceDates": [
        "2026-03-07"
      ]
    },
    "la_paz_bolivia_-16_5_-68_15": {
      "id": "la_paz_bolivia_-16_5_-68_15",
      "label": "La Paz, Bolivia",
      "latitude": -16.5,
      "longitude": -68.15,
      "sourceNames": [
        "La Paz, Bolivia"
      ],
      "sourceDates": [
        "2026-03-07"
      ]
    },
    "cabin_john_maryland_38_9754_-77_158": {
      "id": "cabin_john_maryland_38_9754_-77_158",
      "label": "Cabin John, Maryland",
      "latitude": 38.9754,
      "longitude": -77.158,
      "sourceNames": [
        "Cabin John, Md."
      ],
      "sourceDates": [
        "2026-03-06"
      ]
    },
    "rome_georgia_34_257_-85_1647": {
      "id": "rome_georgia_34_257_-85_1647",
      "label": "Rome, Georgia",
      "latitude": 34.257,
      "longitude": -85.1647,
      "sourceNames": [
        "Rome, Ga."
      ],
      "sourceDates": [
        "2026-03-06"
      ]
    },
    "otisville_new_york_41_4734_-74_5385": {
      "id": "otisville_new_york_41_4734_-74_5385",
      "label": "Otisville, New York",
      "latitude": 41.4734,
      "longitude": -74.5385,
      "sourceNames": [
        "Otisville, N.Y."
      ],
      "sourceDates": [
        "2026-03-06"
      ]
    },
    "minnesota_46_7296_-94_6859": {
      "id": "minnesota_46_7296_-94_6859",
      "label": "Minnesota",
      "latitude": 46.7296,
      "longitude": -94.6859,
      "sourceNames": [
        "Minnesota"
      ],
      "sourceDates": [
        "2026-03-06"
      ]
    },
    "srinagar_india_34_0857_74_8055": {
      "id": "srinagar_india_34_0857_74_8055",
      "label": "Srinagar, India",
      "latitude": 34.0857,
      "longitude": 74.8055,
      "sourceNames": [
        "Srinagar"
      ],
      "sourceDates": [
        "2026-03-06"
      ]
    },
    "calgary_canada_51_0501_-114_0853": {
      "id": "calgary_canada_51_0501_-114_0853",
      "label": "Calgary, Canada",
      "latitude": 51.0501,
      "longitude": -114.0853,
      "sourceNames": [
        "Calgary, Alberta"
      ],
      "sourceDates": [
        "2026-03-06"
      ]
    },
    "busan_south_korea_35_1017_129_03": {
      "id": "busan_south_korea_35_1017_129_03",
      "label": "Busan, South Korea",
      "latitude": 35.1017,
      "longitude": 129.03,
      "sourceNames": [
        "Busan, South Korea"
      ],
      "sourceDates": [
        "2026-03-06"
      ]
    },
    "china_mexico_25_7_-99_2345": {
      "id": "china_mexico_25_7_-99_2345",
      "label": "China, Mexico",
      "latitude": 25.7,
      "longitude": -99.2345,
      "sourceNames": [
        "Maotai, China"
      ],
      "sourceDates": [
        "2026-03-06"
      ]
    },
    "wayne_county_utah_38_36_-110_9": {
      "id": "wayne_county_utah_38_36_-110_9",
      "label": "Wayne County, Utah",
      "latitude": 38.36,
      "longitude": -110.9,
      "sourceNames": [
        "Wayne County, Utah"
      ],
      "sourceDates": [
        "2026-03-05"
      ]
    },
    "winder_georgia_33_9926_-83_7202": {
      "id": "winder_georgia_33_9926_-83_7202",
      "label": "Winder, Georgia",
      "latitude": 33.9926,
      "longitude": -83.7202,
      "sourceNames": [
        "Winder, Ga."
      ],
      "sourceDates": [
        "2026-03-03",
        "2026-03-05"
      ]
    },
    "amsterdam_netherlands_52_374_4_8897": {
      "id": "amsterdam_netherlands_52_374_4_8897",
      "label": "Amsterdam, Netherlands",
      "latitude": 52.374,
      "longitude": 4.8897,
      "sourceNames": [
        "Amsterdam"
      ],
      "sourceDates": [
        "2026-03-05"
      ]
    },
    "maastricht_netherlands_50_8483_5_6889": {
      "id": "maastricht_netherlands_50_8483_5_6889",
      "label": "Maastricht, Netherlands",
      "latitude": 50.8483,
      "longitude": 5.6889,
      "sourceNames": [
        "Maastricht, the Netherlands"
      ],
      "sourceDates": [
        "2026-03-05"
      ]
    },
    "ramiyah_lebanon_33_1108_35_3106": {
      "id": "ramiyah_lebanon_33_1108_35_3106",
      "label": "Ramiyah, Lebanon",
      "latitude": 33.1108,
      "longitude": 35.3106,
      "sourceNames": [
        "Israel’s border with Lebanon"
      ],
      "sourceDates": [
        "2026-03-05"
      ]
    },
    "stuttgart_germany_48_7823_9_177": {
      "id": "stuttgart_germany_48_7823_9_177",
      "label": "Stuttgart, Germany",
      "latitude": 48.7823,
      "longitude": 9.177,
      "sourceNames": [
        "Stuttgart, Germany"
      ],
      "sourceDates": [
        "2026-03-05"
      ]
    },
    "skokie_illinois_42_0334_-87_7334": {
      "id": "skokie_illinois_42_0334_-87_7334",
      "label": "Skokie, Illinois",
      "latitude": 42.0334,
      "longitude": -87.7334,
      "sourceNames": [
        "Skokie, Ill."
      ],
      "sourceDates": [
        "2026-03-05"
      ]
    },
    "evanston_illinois_42_0411_-87_6901": {
      "id": "evanston_illinois_42_0411_-87_6901",
      "label": "Evanston, Illinois",
      "latitude": 42.0411,
      "longitude": -87.6901,
      "sourceNames": [
        "Evanston, Ill."
      ],
      "sourceDates": [
        "2026-03-05"
      ]
    },
    "bellevue_washington_47_6104_-122_2007": {
      "id": "bellevue_washington_47_6104_-122_2007",
      "label": "Bellevue, Washington",
      "latitude": 47.6104,
      "longitude": -122.2007,
      "sourceNames": [
        "Bellevue, Wash."
      ],
      "sourceDates": [
        "2026-03-05"
      ]
    },
    "san_luis_obispo_california_35_2828_-120_6596": {
      "id": "san_luis_obispo_california_35_2828_-120_6596",
      "label": "San Luis Obispo, California",
      "latitude": 35.2828,
      "longitude": -120.6596,
      "sourceNames": [
        "San Luis Obispo, Calif."
      ],
      "sourceDates": [
        "2026-03-05"
      ]
    },
    "cambria_california_35_5641_-121_0807": {
      "id": "cambria_california_35_5641_-121_0807",
      "label": "Cambria, California",
      "latitude": 35.5641,
      "longitude": -121.0807,
      "sourceNames": [
        "Cambria, Calif."
      ],
      "sourceDates": [
        "2026-03-05"
      ]
    },
    "cape_town_south_africa_-33_9258_18_4232": {
      "id": "cape_town_south_africa_-33_9258_18_4232",
      "label": "Cape Town, South Africa",
      "latitude": -33.9258,
      "longitude": 18.4232,
      "sourceNames": [
        "Cape Town"
      ],
      "sourceDates": [
        "2026-03-05"
      ]
    },
    "vienna_austria_48_2085_16_3721": {
      "id": "vienna_austria_48_2085_16_3721",
      "label": "Vienna, Austria",
      "latitude": 48.2085,
      "longitude": 16.3721,
      "sourceNames": [
        "Vienna"
      ],
      "sourceDates": [
        "2026-03-05"
      ]
    },
    "canberra_australia_-35_2835_149_1281": {
      "id": "canberra_australia_-35_2835_149_1281",
      "label": "Canberra, Australia",
      "latitude": -35.2835,
      "longitude": 149.1281,
      "sourceNames": [
        "Canberra, Australia"
      ],
      "sourceDates": [
        "2026-03-05"
      ]
    },
    "durham_north_carolina_35_994_-78_8986": {
      "id": "durham_north_carolina_35_994_-78_8986",
      "label": "Durham, North Carolina",
      "latitude": 35.994,
      "longitude": -78.8986,
      "sourceNames": [
        "Durham, N.C."
      ],
      "sourceDates": [
        "2026-03-03",
        "2026-03-04",
        "2026-03-05"
      ]
    },
    "quito_ecuador_-0_2298_-78_525": {
      "id": "quito_ecuador_-0_2298_-78_525",
      "label": "Quito, Ecuador",
      "latitude": -0.2298,
      "longitude": -78.525,
      "sourceNames": [
        "Quito, Ecuador"
      ],
      "sourceDates": [
        "2026-03-04"
      ]
    },
    "denver_colorado_39_7392_-104_9847": {
      "id": "denver_colorado_39_7392_-104_9847",
      "label": "Denver, Colorado",
      "latitude": 39.7392,
      "longitude": -104.9847,
      "sourceNames": [
        "Denver"
      ],
      "sourceDates": [
        "2026-03-04"
      ]
    },
    "takamatsu_japan_34_3333_134_05": {
      "id": "takamatsu_japan_34_3333_134_05",
      "label": "Takamatsu, Japan",
      "latitude": 34.3333,
      "longitude": 134.05,
      "sourceNames": [
        "Takamatsu, Japan"
      ],
      "sourceDates": [
        "2026-03-04"
      ]
    },
    "doune_united_kingdom_56_19_-4_0529": {
      "id": "doune_united_kingdom_56_19_-4_0529",
      "label": "Doune, United Kingdom",
      "latitude": 56.19,
      "longitude": -4.0529,
      "sourceNames": [
        "Doune, Scotland"
      ],
      "sourceDates": [
        "2026-03-04"
      ]
    },
    "springfield_united_states_37_2153_-93_2982": {
      "id": "springfield_united_states_37_2153_-93_2982",
      "label": "Springfield, United States",
      "latitude": 37.2153,
      "longitude": -93.2982,
      "sourceNames": [
        "Springfield, Ohio"
      ],
      "sourceDates": [
        "2026-03-03"
      ]
    },
    "naples_italy_40_8522_14_2681": {
      "id": "naples_italy_40_8522_14_2681",
      "label": "Naples, Italy",
      "latitude": 40.8522,
      "longitude": 14.2681,
      "sourceNames": [
        "Naples, Italy"
      ],
      "sourceDates": [
        "2026-03-03"
      ]
    },
    "isfahan_iran_32_6525_51_6746": {
      "id": "isfahan_iran_32_6525_51_6746",
      "label": "Isfahan, Iran",
      "latitude": 32.6525,
      "longitude": 51.6746,
      "sourceNames": [
        "Isfahan, Iran"
      ],
      "sourceDates": [
        "2026-03-03"
      ]
    },
    "patamban_michoacan_mexico_19_8033_-102_2912": {
      "id": "patamban_michoacan_mexico_19_8033_-102_2912",
      "label": "Patamban, Michoacan, Mexico",
      "latitude": 19.8033,
      "longitude": -102.2912,
      "sourceNames": [
        "Patamban, Mexico"
      ],
      "sourceDates": [
        "2026-03-03"
      ]
    },
    "tunkhannock_united_states_41_5387_-75_9466": {
      "id": "tunkhannock_united_states_41_5387_-75_9466",
      "label": "Tunkhannock, United States",
      "latitude": 41.5387,
      "longitude": -75.9466,
      "sourceNames": [
        "Tunkhannock, Pa."
      ],
      "sourceDates": [
        "2026-03-03"
      ]
    },
    "jos_nigeria_9_9285_8_8921": {
      "id": "jos_nigeria_9_9285_8_8921",
      "label": "Jos, Nigeria",
      "latitude": 9.9285,
      "longitude": 8.8921,
      "sourceNames": [
        "Jos, Nigeria"
      ],
      "sourceDates": [
        "2026-03-03"
      ]
    },
    "kano_nigeria_12_0001_8_5167": {
      "id": "kano_nigeria_12_0001_8_5167",
      "label": "Kano, Nigeria",
      "latitude": 12.0001,
      "longitude": 8.5167,
      "sourceNames": [
        "Kano, Nigeria"
      ],
      "sourceDates": [
        "2026-03-03"
      ]
    },
    "yangon_myanmar_16_8053_96_1561": {
      "id": "yangon_myanmar_16_8053_96_1561",
      "label": "Yangon, Myanmar",
      "latitude": 16.8053,
      "longitude": 96.1561,
      "sourceNames": [
        "Yangon, Myanmar"
      ],
      "sourceDates": [
        "2026-03-03"
      ]
    },
    "bagan_myanmar_21_1725_94_86": {
      "id": "bagan_myanmar_21_1725_94_86",
      "label": "Bagan, Myanmar",
      "latitude": 21.1725,
      "longitude": 94.86,
      "sourceNames": [
        "Bagan, Myanmar"
      ],
      "sourceDates": [
        "2026-03-03"
      ]
    },
    "iran_32_53": {
      "id": "iran_32_53",
      "label": "Iran",
      "latitude": 32,
      "longitude": 53,
      "sourceNames": [
        "Iran"
      ],
      "sourceDates": [
        "2026-03-03"
      ]
    }
  },
  "dates": {
    "2026-03-28": {
      "label": "Mar 28",
      "locationIds": [
        "beirut_lebanon_33_8933_35_5016",
        "grapevine_texas_32_9343_-97_0781",
        "houston_texas_29_7633_-95_3633",
        "islamabad_pakistan_33_7215_73_0433",
        "kraskovo_russia_55_6497_37_9878",
        "kyiv_ukraine_50_4547_30_5238",
        "las_vegas_united_states_36_175_-115_1372",
        "lisle_aux_coudres_quebec_47_4_-70_3833",
        "mehran_iran_33_1222_46_1646",
        "mexico_city_mexico_19_4285_-99_1277",
        "miami_florida_25_7743_-80_1937",
        "milan_italy_45_4643_9_1895",
        "minneapolis_minnesota_44_98_-93_2638",
        "paris_france_48_8534_2_3488",
        "st_paul_canada_53_9835_-111_2851",
        "washington_dc_38_9072_-77_0369",
        "west_palm_beach_florida_26_7153_-80_0534"
      ],
      "locationArticleCounts": {
        "grapevine_texas_32_9343_-97_0781": 2,
        "washington_dc_38_9072_-77_0369": 4,
        "kyiv_ukraine_50_4547_30_5238": 1,
        "paris_france_48_8534_2_3488": 1,
        "beirut_lebanon_33_8933_35_5016": 2,
        "st_paul_canada_53_9835_-111_2851": 1,
        "islamabad_pakistan_33_7215_73_0433": 1,
        "milan_italy_45_4643_9_1895": 1,
        "mexico_city_mexico_19_4285_-99_1277": 1,
        "miami_florida_25_7743_-80_1937": 1,
        "las_vegas_united_states_36_175_-115_1372": 1,
        "mehran_iran_33_1222_46_1646": 1,
        "lisle_aux_coudres_quebec_47_4_-70_3833": 1,
        "houston_texas_29_7633_-95_3633": 1,
        "minneapolis_minnesota_44_98_-93_2638": 1,
        "kraskovo_russia_55_6497_37_9878": 1,
        "west_palm_beach_florida_26_7153_-80_0534": 1
      },
      "locationArticles": {
        "grapevine_texas_32_9343_-97_0781": [
          {
            "headline": "Vance Wins CPAC Straw Poll, but Rubio Gains Steam Among MAGA Faithful",
            "url": "https://www.nytimes.com/2026/03/28/us/politics/vance-rubio-cpac-straw-poll.html"
          },
          {
            "headline": "On CPAC’s Main Stage, Fissures in the Party Trump Remade",
            "url": "https://www.nytimes.com/2026/03/28/us/politics/on-cpacs-main-stage-fissures-in-the-party-trump-remade.html"
          }
        ],
        "washington_dc_38_9072_-77_0369": [
          {
            "headline": "G.O.P. Rift Leaves Congress With No Clear Shutdown Off Ramp",
            "url": "https://www.nytimes.com/2026/03/28/us/gop-rift-leaves-no-clear-shutdown-off-ramp.html"
          },
          {
            "headline": "F.B.I. Said to Dig Up Old Investigative Files on Democratic Lawmaker",
            "url": "https://www.nytimes.com/2026/03/28/us/politics/trump-fbi-patel-eric-swalwell.html"
          },
          {
            "headline": "Wild Portrait of Trump at War",
            "url": "https://www.nytimes.com/2026/03/28/us/politics/trump-iran-war.html"
          },
          {
            "headline": "Strike on U.S. Base in Saudi Arabia Injures 12 American Troops, 2 Seriously, Officials Say",
            "url": "https://www.nytimes.com/2026/03/27/world/middleeast/iran-strike-us-base-saudi-arabia.html"
          }
        ],
        "kyiv_ukraine_50_4547_30_5238": [
          {
            "headline": "Ukraine Finalizes Air Defense Deals With Gulf Nations Amid War in Mideast",
            "url": "https://www.nytimes.com/2026/03/28/world/europe/ukraine-air-defense-deal-qatar-saudi-arabia.html"
          }
        ],
        "paris_france_48_8534_2_3488": [
          {
            "headline": "Man in Paris Accused of Attempted Attack on Bank of America",
            "url": "https://www.nytimes.com/2026/03/28/world/europe/paris-attack-bank-of-america.html"
          }
        ],
        "beirut_lebanon_33_8933_35_5016": [
          {
            "headline": "Israeli Strike Kills 3 Journalists in Southern Lebanon, Officials Say",
            "url": "https://www.nytimes.com/2026/03/28/world/middleeast/lebanon-journalists-killed-israeli-strike.html"
          },
          {
            "headline": "Yemen’s Houthis Fire at Israel, Vowing Further Attacks",
            "url": "https://www.nytimes.com/2026/03/28/world/middleeast/yemen-houthis-attack-israel-war.html"
          }
        ],
        "st_paul_canada_53_9835_-111_2851": [
          {
            "headline": "A Show of Defiance Across the Nation",
            "url": "https://www.nytimes.com/2026/03/28/us/no-kings-protest-photos-videos.html"
          }
        ],
        "islamabad_pakistan_33_7215_73_0433": [
          {
            "headline": "Pakistan Set to Host Top Regional Diplomats for Talks on Iran War",
            "url": "https://www.nytimes.com/2026/03/28/world/middleeast/iran-pakistan-diplomacy.html"
          }
        ],
        "milan_italy_45_4643_9_1895": [
          {
            "headline": "‘Life! Life! Life!’: Reviving a Globe-Trotting Sculptor of the Gilded Age",
            "url": "https://www.nytimes.com/2026/03/28/arts/design/paul-troubezkoy.html"
          }
        ],
        "mexico_city_mexico_19_4285_-99_1277": [
          {
            "headline": "With Cuba Under Pressure, the Castro Dynasty Is Making a Comeback",
            "url": "https://www.nytimes.com/2026/03/28/world/americas/castro-family-cuba-energy-crisis-trump.html"
          }
        ],
        "miami_florida_25_7743_-80_1937": [
          {
            "headline": "With Cuba Under Pressure, the Castro Dynasty Is Making a Comeback",
            "url": "https://www.nytimes.com/2026/03/28/world/americas/castro-family-cuba-energy-crisis-trump.html"
          }
        ],
        "las_vegas_united_states_36_175_-115_1372": [
          {
            "headline": "A Downturn in Las Vegas Could Signal Tough Times for the Nation",
            "url": "https://www.nytimes.com/2026/03/28/us/politics/las-vegas-economy.html"
          }
        ],
        "mehran_iran_33_1222_46_1646": [
          {
            "headline": "On Iran’s Rugged Frontier, Kurds Yearn to Join the Fight",
            "url": "https://www.nytimes.com/2026/03/28/world/europe/iran-kurds-iraq-fighters.html"
          }
        ],
        "lisle_aux_coudres_quebec_47_4_-70_3833": [
          {
            "headline": "Halfway Through Lent, a Small Quebec Island Celebrates With Masks and Jigs",
            "url": "https://www.nytimes.com/2026/03/28/world/canada/mid-lent-celebration-quebec-islands.html"
          }
        ],
        "houston_texas_29_7633_-95_3633": [
          {
            "headline": "How Clean Energy Firms Are Trying to Survive the Trump Era",
            "url": "https://www.nytimes.com/2026/03/28/climate/clean-energy-trump-renewable.html"
          }
        ],
        "minneapolis_minnesota_44_98_-93_2638": [
          {
            "headline": "Running for Congress at 30,000 Feet: A Flight Attendant’s Campaign Trail",
            "url": "https://www.nytimes.com/2026/03/28/us/politics/kaela-berg-minnesota-congress-democrat.html"
          }
        ],
        "kraskovo_russia_55_6497_37_9878": [
          {
            "headline": "Can This Russian Bakery Survive a 3,500% Tax Increase?",
            "url": "https://www.nytimes.com/2026/03/28/world/europe/russia-economy-small-business-tax-increase.html"
          }
        ],
        "west_palm_beach_florida_26_7153_-80_0534": [
          {
            "headline": "Trump Says Middle East Is ‘Saved’ as Iran Strikes Injure U.S. Troops in Gulf",
            "url": "https://www.nytimes.com/2026/03/27/us/politics/trump-saudi-speech.html"
          }
        ]
      },
      "rawLocationCount": 22
    },